{
   "type": "FeatureCollection",
   "features": [
  {
    "type": "Feature",
    "geometry": {
       "type": "Point",
       "coordinates":  [ 111.95525,-2.360722222 ]
    },
    "properties": {
    "SITE_ID":"18NIK020",
    "SITE_NAME":"PT_GSPP"
    }
  },
  {
    "type": "Feature",
    "geometry": {
       "type": "Point",
       "coordinates":  [ 111.9186944,-2.466638889 ]
    },
    "properties": {
    "SITE_ID":"18PBU003",
    "SITE_NAME":"NATAI_KERBAU"
    }
  },
  {
    "type": "Feature",
    "geometry": {
       "type": "Point",
       "coordinates":  [ 111.9728056,-2.446027778 ]
    },
    "properties": {
    "SITE_ID":"18PBU031",
    "SITE_NAME":"DESA_AMIN_JAYA"
    }
  },
  {
    "type": "Feature",
    "geometry": {
       "type": "Point",
       "coordinates":  [ 112.51,-1.963888889 ]
    },
    "properties": {
    "SITE_ID":"18SPT015",
    "SITE_NAME":"KUALAKUAYAN"
    }
  },
  {
    "type": "Feature",
    "geometry": {
       "type": "Point",
       "coordinates":  [ 112.6160556,-1.999944444 ]
    },
    "properties": {
    "SITE_ID":"18SPT045",
    "SITE_NAME":"PT_MAKIN_KM_17"
    }
  },
  {
    "type": "Feature",
    "geometry": {
       "type": "Point",
       "coordinates":  [ 112.7453611,-2.109555556 ]
    },
    "properties": {
    "SITE_ID":"18SPT010",
    "SITE_NAME":"PT_MAKIN"
    }
  },
  {
    "type": "Feature",
    "geometry": {
       "type": "Point",
       "coordinates":  [ 111.5429444,-2.2565 ]
    },
    "properties": {
    "SITE_ID":"18PBU005",
    "SITE_NAME":"N_SEMATU"
    }
  },
  {
    "type": "Feature",
    "geometry": {
       "type": "Point",
       "coordinates":  [ 111.6348611,-2.347083333 ]
    },
    "properties": {
    "SITE_ID":"18NIK014",
    "SITE_NAME":"SULUNG"
    }
  },
  {
    "type": "Feature",
    "geometry": {
       "type": "Point",
       "coordinates":  [ 115.7751944,-3.481472222 ]
    },
    "properties": {
    "SITE_ID":"17BLC020",
    "SITE_NAME":"LASUNG"
    }
  },
  {
    "type": "Feature",
    "geometry": {
       "type": "Point",
       "coordinates":  [ 115.8235556,-3.396805556 ]
    },
    "properties": {
    "SITE_ID":"17BLC017",
    "SITE_NAME":"DESA_4"
    }
  },
  {
    "type": "Feature",
    "geometry": {
       "type": "Point",
       "coordinates":  [ 115.9068611,-3.396888889 ]
    },
    "properties": {
    "SITE_ID":"17BLC021",
    "SITE_NAME":"KARANG_BINTANG"
    }
  },
  {
    "type": "Feature",
    "geometry": {
       "type": "Point",
       "coordinates":  [ 116.7001667,-1.329611111 ]
    },
    "properties": {
    "SITE_ID":"19PPU006",
    "SITE_NAME":"LAWE_LAWE"
    }
  },
  {
    "type": "Feature",
    "geometry": {
       "type": "Point",
       "coordinates":  [ 116.8849444,-1.228055556 ]
    },
    "properties": {
    "SITE_ID":"19BPP023",
    "SITE_NAME":"SEPINGGAN_BARU"
    }
  },
  {
    "type": "Feature",
    "geometry": {
       "type": "Point",
       "coordinates":  [ 116.87,-1.232666667 ]
    },
    "properties": {
    "SITE_ID":"19BPP068",
    "SITE_NAME":"PERUM_WIKA_SM"
    }
  },
  {
    "type": "Feature",
    "geometry": {
       "type": "Point",
       "coordinates":  [ 116.8509444,-1.273527778 ]
    },
    "properties": {
    "SITE_ID":"19BPP012",
    "SITE_NAME":"MARKONI"
    }
  },
  {
    "type": "Feature",
    "geometry": {
       "type": "Point",
       "coordinates":  [ 116.8789444,-1.138027778 ]
    },
    "properties": {
    "SITE_ID":"19BPP024",
    "SITE_NAME":"KM18_BALIKPAPAN"
    }
  },
  {
    "type": "Feature",
    "geometry": {
       "type": "Point",
       "coordinates":  [ 116.8509444,-1.195138889 ]
    },
    "properties": {
    "SITE_ID":"19BPP025",
    "SITE_NAME":"GRAHA_INDAH"
    }
  },
  {
    "type": "Feature",
    "geometry": {
       "type": "Point",
       "coordinates":  [ 116.8809444,-1.205944444 ]
    },
    "properties": {
    "SITE_ID":"19BPP019",
    "SITE_NAME":"BATU_AMPAR"
    }
  },
  {
    "type": "Feature",
    "geometry": {
       "type": "Point",
       "coordinates":  [ 117.1009444,-0.496722222 ]
    },
    "properties": {
    "SITE_ID":"19SMR020",
    "SITE_NAME":"DPRD_SAMARINDA"
    }
  },
  {
    "type": "Feature",
    "geometry": {
       "type": "Point",
       "coordinates":  [ 117.0809444,-0.549055556 ]
    },
    "properties": {
    "SITE_ID":"19SMR014",
    "SITE_NAME":"LOA_BUAH"
    }
  },
  {
    "type": "Feature",
    "geometry": {
       "type": "Point",
       "coordinates":  [ 115.7035,-0.366777778 ]
    },
    "properties": {
    "SITE_ID":"19SDW027",
    "SITE_NAME":"SENDAWAR_JENGAN_DANUM_SM"
    }
  },
  {
    "type": "Feature",
    "geometry": {
       "type": "Point",
       "coordinates":  [ 115.5162778,-0.316194444 ]
    },
    "properties": {
    "SITE_ID":"19SDW039",
    "SITE_NAME":"DEMPAR_SM"
    }
  },
  {
    "type": "Feature",
    "geometry": {
       "type": "Point",
       "coordinates":  [ 115.6705833,-0.283166667 ]
    },
    "properties": {
    "SITE_ID":"19SDW029",
    "SITE_NAME":"MENCIMAI"
    }
  },
  {
    "type": "Feature",
    "geometry": {
       "type": "Point",
       "coordinates":  [ 115.7546389,-0.27925 ]
    },
    "properties": {
    "SITE_ID":"19SDW026",
    "SITE_NAME":"SEKOLAQ_DARAT"
    }
  },
  {
    "type": "Feature",
    "geometry": {
       "type": "Point",
       "coordinates":  [ 115.7019444,-0.227527778 ]
    },
    "properties": {
    "SITE_ID":"19SDW002",
    "SITE_NAME":"BARONG_TONGKOK"
    }
  },
  {
    "type": "Feature",
    "geometry": {
       "type": "Point",
       "coordinates":  [ 111.9259167,-2.189 ]
    },
    "properties": {
    "SITE_ID":"18PBU025",
    "SITE_NAME":"KECAMATAN_PANGKUT"
    }
  },
  {
    "type": "Feature",
    "geometry": {
       "type": "Point",
       "coordinates":  [ 112.5158889,-2.189666667 ]
    },
    "properties": {
    "SITE_ID":"18SPT053",
    "SITE_NAME":"TANGAR_KM28"
    }
  },
  {
    "type": "Feature",
    "geometry": {
       "type": "Point",
       "coordinates":  [ 112.6748889,-2.19075 ]
    },
    "properties": {
    "SITE_ID":"18KPA018",
    "SITE_NAME":"TANGARSAWIT_TSA"
    }
  },
  {
    "type": "Feature",
    "geometry": {
       "type": "Point",
       "coordinates":  [ 112.119,-1.929916667 ]
    },
    "properties": {
    "SITE_ID":"18KPA007",
    "SITE_NAME":"RANTAU_PULUT_SM"
    }
  },
  {
    "type": "Feature",
    "geometry": {
       "type": "Point",
       "coordinates":  [ 112.30198,-2.035 ]
    },
    "properties": {
    "SITE_ID":"18KPA035",
    "SITE_NAME":"ROAD_TO_RANTAU_PULUT"
    }
  },
  {
    "type": "Feature",
    "geometry": {
       "type": "Point",
       "coordinates":  [ 111.4848611,-1.897833333 ]
    },
    "properties": {
    "SITE_ID":"18NIK021",
    "SITE_NAME":"DESA_SIDOMULYO"
    }
  },
  {
    "type": "Feature",
    "geometry": {
       "type": "Point",
       "coordinates":  [ 111.4787778,-2.030527778 ]
    },
    "properties": {
    "SITE_ID":"18NIK024",
    "SITE_NAME":"BRUTA"
    }
  },
  {
    "type": "Feature",
    "geometry": {
       "type": "Point",
       "coordinates":  [ 111.707,-2.0615 ]
    },
    "properties": {
    "SITE_ID":"18PBU013",
    "SITE_NAME":"PT_KORINDO"
    }
  },
  {
    "type": "Feature",
    "geometry": {
       "type": "Point",
       "coordinates":  [ 111.6489167,-2.063277778 ]
    },
    "properties": {
    "SITE_ID":"18NIK026",
    "SITE_NAME":"N_KORINDO"
    }
  },
  {
    "type": "Feature",
    "geometry": {
       "type": "Point",
       "coordinates":  [ 111.581,-2.054169444 ]
    },
    "properties": {
    "SITE_ID":"18PBU014",
    "SITE_NAME":"SIMPANG_PARIGI"
    }
  },
  {
    "type": "Feature",
    "geometry": {
       "type": "Point",
       "coordinates":  [ 111.5421389,-2.088222222 ]
    },
    "properties": {
    "SITE_ID":"18NIK025",
    "SITE_NAME":"BASE_CAMP_PERIGI"
    }
  },
  {
    "type": "Feature",
    "geometry": {
       "type": "Point",
       "coordinates":  [ 111.4480833,-2.185111111 ]
    },
    "properties": {
    "SITE_ID":"18NIK001",
    "SITE_NAME":"NANGA_BULIK"
    }
  },
  {
    "type": "Feature",
    "geometry": {
       "type": "Point",
       "coordinates":  [ 115.0665556,-3.195833333 ]
    },
    "properties": {
    "SITE_ID":"17MTP014",
    "SITE_NAME":"SUNGKAI"
    }
  },
  {
    "type": "Feature",
    "geometry": {
       "type": "Point",
       "coordinates":  [ 115.0473722,-3.245688889 ]
    },
    "properties": {
    "SITE_ID":"17MTP013",
    "SITE_NAME":"MATARAMAN"
    }
  },
  {
    "type": "Feature",
    "geometry": {
       "type": "Point",
       "coordinates":  [ 115.4445833,-2.202 ]
    },
    "properties": {
    "SITE_ID":"17TJL010",
    "SITE_NAME":"MABURAI"
    }
  },
  {
    "type": "Feature",
    "geometry": {
       "type": "Point",
       "coordinates":  [ 115.4131806,-2.172919444 ]
    },
    "properties": {
    "SITE_ID":"17TJL003",
    "SITE_NAME":"MABUUN"
    }
  },
  {
    "type": "Feature",
    "geometry": {
       "type": "Point",
       "coordinates":  [ 115.7965,-3.250666667 ]
    },
    "properties": {
    "SITE_ID":"17BLC016",
    "SITE_NAME":"SAMPANAHAN"
    }
  },
  {
    "type": "Feature",
    "geometry": {
       "type": "Point",
       "coordinates":  [ 115.9278611,-3.339611111 ]
    },
    "properties": {
    "SITE_ID":"17BLC022",
    "SITE_NAME":"BLOK_A"
    }
  },
  {
    "type": "Feature",
    "geometry": {
       "type": "Point",
       "coordinates":  [ 116.0826111,-1.877111111 ]
    },
    "properties": {
    "SITE_ID":"19TGT024",
    "SITE_NAME":"LOLO_SM"
    }
  },
  {
    "type": "Feature",
    "geometry": {
       "type": "Point",
       "coordinates":  [ 115.6893333,-0.567027778 ]
    },
    "properties": {
    "SITE_ID":"19SDW024",
    "SITE_NAME":"CAMP_ADONG"
    }
  },
  {
    "type": "Feature",
    "geometry": {
       "type": "Point",
       "coordinates":  [ 115.69675,-0.450472222 ]
    },
    "properties": {
    "SITE_ID":"19SDW028",
    "SITE_NAME":"DAMAI_SM"
    }
  },
  {
    "type": "Feature",
    "geometry": {
       "type": "Point",
       "coordinates":  [ 115.7596944,-0.466916667 ]
    },
    "properties": {
    "SITE_ID":"19SDW006",
    "SITE_NAME":"MUARA_LAWA"
    }
  },
  {
    "type": "Feature",
    "geometry": {
       "type": "Point",
       "coordinates":  [ 115.4475,-0.080611111 ]
    },
    "properties": {
    "SITE_ID":"19SDW025",
    "SITE_NAME":"N_PT_KEM"
    }
  },
  {
    "type": "Feature",
    "geometry": {
       "type": "Point",
       "coordinates":  [ 115.64375,-0.082583333 ]
    },
    "properties": {
    "SITE_ID":"19SDW007",
    "SITE_NAME":"LONGIRAM"
    }
  },
  {
    "type": "Feature",
    "geometry": {
       "type": "Point",
       "coordinates":  [ 115.6303333,-0.1435 ]
    },
    "properties": {
    "SITE_ID":"19SDW005",
    "SITE_NAME":"LINGGANG_BINGUNG"
    }
  },
  {
    "type": "Feature",
    "geometry": {
       "type": "Point",
       "coordinates":  [ 115.7163333,-0.191416667 ]
    },
    "properties": {
    "SITE_ID":"19SDW008",
    "SITE_NAME":"N_LINGGANG_BINGUNG"
    }
  },
  {
    "type": "Feature",
    "geometry": {
       "type": "Point",
       "coordinates":  [ 115.9375833,-2.019166667 ]
    },
    "properties": {
    "SITE_ID":"19TGT031",
    "SITE_NAME":"MUSER"
    }
  },
  {
    "type": "Feature",
    "geometry": {
       "type": "Point",
       "coordinates":  [ 115.93575,-1.92925 ]
    },
    "properties": {
    "SITE_ID":"19TGT040",
    "SITE_NAME":"RT_MUARA_SAMU"
    }
  },
  {
    "type": "Feature",
    "geometry": {
       "type": "Point",
       "coordinates":  [ 115.911417,-1.820833 ]
    },
    "properties": {
    "SITE_ID":"19TGT004",
    "SITE_NAME":"BATU_KAJANG"
    }
  },
  {
    "type": "Feature",
    "geometry": {
       "type": "Point",
       "coordinates":  [ 116.1483889,-1.8485 ]
    },
    "properties": {
    "SITE_ID":"19TGT029",
    "SITE_NAME":"JANJUK_SM"
    }
  },
  {
    "type": "Feature",
    "geometry": {
       "type": "Point",
       "coordinates":  [ 116.1759444,-1.885722222 ]
    },
    "properties": {
    "SITE_ID":"19TGT005",
    "SITE_NAME":"TERMINAL_TANAH_GROGOT"
    }
  },
  {
    "type": "Feature",
    "geometry": {
       "type": "Point",
       "coordinates":  [ 116.0502222,-2.269 ]
    },
    "properties": {
    "SITE_ID":"19TGT023",
    "SITE_NAME":"KARANG_SM"
    }
  },
  {
    "type": "Feature",
    "geometry": {
       "type": "Point",
       "coordinates":  [ 116.0791389,-2.224055556 ]
    },
    "properties": {
    "SITE_ID":"19TGT030",
    "SITE_NAME":"BATU_ENGAU_SM"
    }
  },
  {
    "type": "Feature",
    "geometry": {
       "type": "Point",
       "coordinates":  [ 116.1075278,-2.1575 ]
    },
    "properties": {
    "SITE_ID":"19TGT022",
    "SITE_NAME":"PETANGIS"
    }
  },
  {
    "type": "Feature",
    "geometry": {
       "type": "Point",
       "coordinates":  [ 116.1920556,-1.994138889 ]
    },
    "properties": {
    "SITE_ID":"19TGT035",
    "SITE_NAME":"SP2_SM"
    }
  },
  {
    "type": "Feature",
    "geometry": {
       "type": "Point",
       "coordinates":  [ 116.3077778,-1.973861111 ]
    },
    "properties": {
    "SITE_ID":"19TGT036",
    "SITE_NAME":"LABUAN_BARU_SM"
    }
  },
  {
    "type": "Feature",
    "geometry": {
       "type": "Point",
       "coordinates":  [ 116.2110361,-1.949997222 ]
    },
    "properties": {
    "SITE_ID":"19TGT033",
    "SITE_NAME":"PASIR_BELENGKONG"
    }
  },
  {
    "type": "Feature",
    "geometry": {
       "type": "Point",
       "coordinates":  [ 112.93825,-1.535833333 ]
    },
    "properties": {
    "SITE_ID":"18KSN024",
    "SITE_NAME":"PT_KBK_TB"
    }
  },
  {
    "type": "Feature",
    "geometry": {
       "type": "Point",
       "coordinates":  [ 111.9043222,1.047802778 ]
    },
    "properties": {
    "SITE_ID":"16PTS002",
    "SITE_NAME":"V_NANGA_BADAU"
    }
  },
  {
    "type": "Feature",
    "geometry": {
       "type": "Point",
       "coordinates":  [ 112.3098333,0.425777778 ]
    },
    "properties": {
    "SITE_ID":"16PTS039",
    "SITE_NAME":"V_SIMPANG_ADONG"
    }
  },
  {
    "type": "Feature",
    "geometry": {
       "type": "Point",
       "coordinates":  [ 114.8680833,-3.100416667 ]
    },
    "properties": {
    "SITE_ID":"17MTP044",
    "SITE_NAME":"PT_PALMINA_TB"
    }
  },
  {
    "type": "Feature",
    "geometry": {
       "type": "Point",
       "coordinates":  [ 114.7641944,-2.981388889 ]
    },
    "properties": {
    "SITE_ID":"17MRB001",
    "SITE_NAME":"MARABAHAN"
    }
  },
  {
    "type": "Feature",
    "geometry": {
       "type": "Point",
       "coordinates":  [ 114.3980278,-2.986666667 ]
    },
    "properties": {
    "SITE_ID":"18KKP032",
    "SITE_NAME":"KUALA_KAPUAS2_PL"
    }
  },
  {
    "type": "Feature",
    "geometry": {
       "type": "Point",
       "coordinates":  [ 114.3447778,-2.967 ]
    },
    "properties": {
    "SITE_ID":"18KKP033",
    "SITE_NAME":"PULAU_TELU_TB"
    }
  },
  {
    "type": "Feature",
    "geometry": {
       "type": "Point",
       "coordinates":  [ 115.3865694,-2.554330556 ]
    },
    "properties": {
    "SITE_ID":"17BRI022",
    "SITE_NAME":"AYUANG_TB"
    }
  },
  {
    "type": "Feature",
    "geometry": {
       "type": "Point",
       "coordinates":  [ 113.8987694,-2.202261111 ]
    },
    "properties": {
    "SITE_ID":"18PLK030",
    "SITE_NAME":"BELIANG_TB"
    }
  },
  {
    "type": "Feature",
    "geometry": {
       "type": "Point",
       "coordinates":  [ 113.4189,-1.86915 ]
    },
    "properties": {
    "SITE_ID":"18KSN023",
    "SITE_NAME":"PEMDA_KATINGAN_TB"
    }
  },
  {
    "type": "Feature",
    "geometry": {
       "type": "Point",
       "coordinates":  [ 113.3855833,-1.91225 ]
    },
    "properties": {
    "SITE_ID":"18KSN004",
    "SITE_NAME":"KASONGAN_PALANGKA"
    }
  },
  {
    "type": "Feature",
    "geometry": {
       "type": "Point",
       "coordinates":  [ 114.8002778,-3.539111111 ]
    },
    "properties": {
    "SITE_ID":"17PLI008",
    "SITE_NAME":"BANYU_IRANG"
    }
  },
  {
    "type": "Feature",
    "geometry": {
       "type": "Point",
       "coordinates":  [ 114.948894,-3.457139 ]
    },
    "properties": {
    "SITE_ID":"17MTP042",
    "SITE_NAME":"KARANG_INTAN_TB"
    }
  },
  {
    "type": "Feature",
    "geometry": {
       "type": "Point",
       "coordinates":  [ 117.1235056,-0.486305556 ]
    },
    "properties": {
    "SITE_ID":"19SMR023",
    "SITE_NAME":"AIRPUTIH_AIRHITAM"
    }
  },
  {
    "type": "Feature",
    "geometry": {
       "type": "Point",
       "coordinates":  [ 110.103944,-0.138556 ]
    },
    "properties": {
    "SITE_ID":"16SAG054",
    "SITE_NAME":"BALAI_SEMADANG_TB"
    }
  },
  {
    "type": "Feature",
    "geometry": {
       "type": "Point",
       "coordinates":  [ 116.8415,-1.278072222 ]
    },
    "properties": {
    "SITE_ID":"19BPP090",
    "SITE_NAME":"_BALCONY_MALL"
    }
  },
  {
    "type": "Feature",
    "geometry": {
       "type": "Point",
       "coordinates":  [ 116.8389444,-1.277666667 ]
    },
    "properties": {
    "SITE_ID":"19BPP006",
    "SITE_NAME":"BALIKPAPAN_PLAZA"
    }
  },
  {
    "type": "Feature",
    "geometry": {
       "type": "Point",
       "coordinates":  [ 117.1254444,-0.531361111 ]
    },
    "properties": {
    "SITE_ID":"19SMR047",
    "SITE_NAME":"CIPTO_MANGUNKUSUMO_SM"
    }
  },
  {
    "type": "Feature",
    "geometry": {
       "type": "Point",
       "coordinates":  [ 116.8334167,-1.276222222 ]
    },
    "properties": {
    "SITE_ID":"19BPP042",
    "SITE_NAME":"HOTEL_MEGA_LESTARI"
    }
  },
  {
    "type": "Feature",
    "geometry": {
       "type": "Point",
       "coordinates":  [ 110.085,-1.428416667 ]
    },
    "properties": {
    "SITE_ID":"16KTP075",
    "SITE_NAME":"KUALA_TOLAK_PL"
    }
  },
  {
    "type": "Feature",
    "geometry": {
       "type": "Point",
       "coordinates":  [ 117.0928333,-0.519 ]
    },
    "properties": {
    "SITE_ID":"19SMR051",
    "SITE_NAME":"LOA_BAKUNG_SM"
    }
  },
  {
    "type": "Feature",
    "geometry": {
       "type": "Point",
       "coordinates":  [ 110.7060556,-2.126583333 ]
    },
    "properties": {
    "SITE_ID":"16KTP039",
    "SITE_NAME":"MARAU"
    }
  },
  {
    "type": "Feature",
    "geometry": {
       "type": "Point",
       "coordinates":  [ 110.1593889,-2.430305556 ]
    },
    "properties": {
    "SITE_ID":"16KTP005",
    "SITE_NAME":"N_KENDAWANGAN"
    }
  },
  {
    "type": "Feature",
    "geometry": {
       "type": "Point",
       "coordinates":  [ 110.1776111,0.199527778 ]
    },
    "properties": {
    "SITE_ID":"16SAG017",
    "SITE_NAME":"N_TAYAN"
    }
  },
  {
    "type": "Feature",
    "geometry": {
       "type": "Point",
       "coordinates":  [ 117.1469444,-0.535916667 ]
    },
    "properties": {
    "SITE_ID":"19SMR006",
    "SITE_NAME":"PALARAN"
    }
  },
  {
    "type": "Feature",
    "geometry": {
       "type": "Point",
       "coordinates":  [ 110.3222222,0.261361111 ]
    },
    "properties": {
    "SITE_ID":"16SAG010",
    "SITE_NAME":"PARINDU"
    }
  },
  {
    "type": "Feature",
    "geometry": {
       "type": "Point",
       "coordinates":  [ 117.0926667,-0.528777778 ]
    },
    "properties": {
    "SITE_ID":"19SMR026",
    "SITE_NAME":"PERUM_LOABAKUNG"
    }
  },
  {
    "type": "Feature",
    "geometry": {
       "type": "Point",
       "coordinates":  [ 110.1196861,-2.036608333 ]
    },
    "properties": {
    "SITE_ID":"16KTP006",
    "SITE_NAME":"PESAGUAN"
    }
  },
  {
    "type": "Feature",
    "geometry": {
       "type": "Point",
       "coordinates":  [ 110.0687,-1.92803 ]
    },
    "properties": {
    "SITE_ID":"16KTP076",
    "SITE_NAME":"SEI_BESAR_PL"
    }
  },
  {
    "type": "Feature",
    "geometry": {
       "type": "Point",
       "coordinates":  [ 117.1126389,-0.557305556 ]
    },
    "properties": {
    "SITE_ID":"19SMR025",
    "SITE_NAME":"SENGKOTEK"
    }
  },
  {
    "type": "Feature",
    "geometry": {
       "type": "Point",
       "coordinates":  [ 110.069,-1.361 ]
    },
    "properties": {
    "SITE_ID":"16KTP019",
    "SITE_NAME":"SIDUK"
    }
  },
  {
    "type": "Feature",
    "geometry": {
       "type": "Point",
       "coordinates":  [ 110.7531111,-1.986166667 ]
    },
    "properties": {
    "SITE_ID":"16KTP079",
    "SITE_NAME":"TANGERANG_JELAI_HULU_TB"
    }
  },
  {
    "type": "Feature",
    "geometry": {
       "type": "Point",
       "coordinates":  [ 110.1124444,-0.032833333 ]
    },
    "properties": {
    "SITE_ID":"16SAG008",
    "SITE_NAME":"TAYAN"
    }
  },
  {
    "type": "Feature",
    "geometry": {
       "type": "Point",
       "coordinates":  [ 117.1546667,-0.547527778 ]
    },
    "properties": {
    "SITE_ID":"19SMR057",
    "SITE_NAME":"TRIKORA_SM"
    }
  },
  {
    "type": "Feature",
    "geometry": {
       "type": "Point",
       "coordinates":  [ 114.5829722,-3.314777778 ]
    },
    "properties": {
    "SITE_ID":"17BJM013",
    "SITE_NAME":"BATU_BENAWA"
    }
  },
  {
    "type": "Feature",
    "geometry": {
       "type": "Point",
       "coordinates":  [ 114.5902222,-3.325777778 ]
    },
    "properties": {
    "SITE_ID":"17BJM001",
    "SITE_NAME":"BPD_BANJARMASIN"
    }
  },
  {
    "type": "Feature",
    "geometry": {
       "type": "Point",
       "coordinates":  [ 115.6241389,-3.723416667 ]
    },
    "properties": {
    "SITE_ID":"17BLC019",
    "SITE_NAME":"KARANG_INDAH"
    }
  },
  {
    "type": "Feature",
    "geometry": {
       "type": "Point",
       "coordinates":  [ 114.5776618,-3.30308319 ]
    },
    "properties": {
    "SITE_ID":"17BJM020",
    "SITE_NAME":"JL_MULAWARMAN_TB"
    }
  },
  {
    "type": "Feature",
    "geometry": {
       "type": "Point",
       "coordinates":  [ 114.5762511,-3.31365526 ]
    },
    "properties": {
    "SITE_ID":"17BJM060",
    "SITE_NAME":"KOMPLEK_DPR_BANJARMASIN_TB"
    }
  },
  {
    "type": "Feature",
    "geometry": {
       "type": "Point",
       "coordinates":  [ 114.5698333,-3.308361111 ]
    },
    "properties": {
    "SITE_ID":"17BJM015",
    "SITE_NAME":"PASIR_MAS"
    }
  },
  {
    "type": "Feature",
    "geometry": {
       "type": "Point",
       "coordinates":  [ 116.8249444,-1.278722222 ]
    },
    "properties": {
    "SITE_ID":"19BPP010",
    "SITE_NAME":"HOTEL_BINTANG"
    }
  },
  {
    "type": "Feature",
    "geometry": {
       "type": "Point",
       "coordinates":  [ 116.811,-1.279777778 ]
    },
    "properties": {
    "SITE_ID":"19BPP041",
    "SITE_NAME":"KMP_PRTMNA"
    }
  },
  {
    "type": "Feature",
    "geometry": {
       "type": "Point",
       "coordinates":  [ 116.8230833,-1.272 ]
    },
    "properties": {
    "SITE_ID":"19BPP030",
    "SITE_NAME":"PRAPATAN_DALAM"
    }
  },
  {
    "type": "Feature",
    "geometry": {
       "type": "Point",
       "coordinates":  [ 111.6280556,-2.725861111 ]
    },
    "properties": {
    "SITE_ID":"18PBU033",
    "SITE_NAME":"JL_AM_RAFIFI"
    }
  },
  {
    "type": "Feature",
    "geometry": {
       "type": "Point",
       "coordinates":  [ 111.7478889,-2.767027778 ]
    },
    "properties": {
    "SITE_ID":"18PBU027",
    "SITE_NAME":"KUMAI_SEBERANG"
    }
  },
  {
    "type": "Feature",
    "geometry": {
       "type": "Point",
       "coordinates":  [ 111.6338889,-2.678611111 ]
    },
    "properties": {
    "SITE_ID":"18PBU001",
    "SITE_NAME":"PANGKALAN_BUN"
    }
  },
  {
    "type": "Feature",
    "geometry": {
       "type": "Point",
       "coordinates":  [ 111.6577778,-2.729944444 ]
    },
    "properties": {
    "SITE_ID":"18PBU009",
    "SITE_NAME":"PASIR_PANJANG"
    }
  },
  {
    "type": "Feature",
    "geometry": {
       "type": "Point",
       "coordinates":  [ 111.717,-2.7174 ]
    },
    "properties": {
    "SITE_ID":"18PBU041",
    "SITE_NAME":"PELABUHAN_KUMAI2_TB"
    }
  },
  {
    "type": "Feature",
    "geometry": {
       "type": "Point",
       "coordinates":  [ 111.7059444,-2.754666667 ]
    },
    "properties": {
    "SITE_ID":"18PBU002",
    "SITE_NAME":"PELABUHAN_KUMAI"
    }
  },
  {
    "type": "Feature",
    "geometry": {
       "type": "Point",
       "coordinates":  [ 111.6662222,-2.669888889 ]
    },
    "properties": {
    "SITE_ID":"18KPA020",
    "SITE_NAME":"PELINGKAU"
    }
  },
  {
    "type": "Feature",
    "geometry": {
       "type": "Point",
       "coordinates":  [ 111.6220833,-2.682444444 ]
    },
    "properties": {
    "SITE_ID":"18NIK019",
    "SITE_NAME":"SEROJA"
    }
  },
  {
    "type": "Feature",
    "geometry": {
       "type": "Point",
       "coordinates":  [ 113.9199722,-2.236888889 ]
    },
    "properties": {
    "SITE_ID":"18PLK022",
    "SITE_NAME":"MILONO"
    }
  },
  {
    "type": "Feature",
    "geometry": {
       "type": "Point",
       "coordinates":  [ 113.9385556,-2.232166667 ]
    },
    "properties": {
    "SITE_ID":"18PLK028",
    "SITE_NAME":"PANARUNG_UJUNG"
    }
  },
  {
    "type": "Feature",
    "geometry": {
       "type": "Point",
       "coordinates":  [ 113.93815,-2.207913889 ]
    },
    "properties": {
    "SITE_ID":"18PPS001",
    "SITE_NAME":"PASAR_SENTRAL"
    }
  },
  {
    "type": "Feature",
    "geometry": {
       "type": "Point",
       "coordinates":  [ 113.9277222,-2.221555556 ]
    },
    "properties": {
    "SITE_ID":"18PLK006",
    "SITE_NAME":"PCPR"
    }
  },
  {
    "type": "Feature",
    "geometry": {
       "type": "Point",
       "coordinates":  [ 113.9193889,-2.274138889 ]
    },
    "properties": {
    "SITE_ID":"18PLK003",
    "SITE_NAME":"RTA_MILONO"
    }
  },
  {
    "type": "Feature",
    "geometry": {
       "type": "Point",
       "coordinates":  [ 113.9212222,-2.2105 ]
    },
    "properties": {
    "SITE_ID":"18PLK008",
    "SITE_NAME":"RUKO_AYANI_PLK"
    }
  },
  {
    "type": "Feature",
    "geometry": {
       "type": "Point",
       "coordinates":  [ 115.2532778,-2.424388889 ]
    },
    "properties": {
    "SITE_ID":"17AMT001",
    "SITE_NAME":"AMUNTAI"
    }
  },
  {
    "type": "Feature",
    "geometry": {
       "type": "Point",
       "coordinates":  [ 112.9450278,-2.529694444 ]
    },
    "properties": {
    "SITE_ID":"18SPT054",
    "SITE_NAME":"BAAMANG_2_JL_KARTINI"
    }
  },
  {
    "type": "Feature",
    "geometry": {
       "type": "Point",
       "coordinates":  [ 112.9676389,-2.522222222 ]
    },
    "properties": {
    "SITE_ID":"18SPT059",
    "SITE_NAME":"BAAMANG_HULU"
    }
  },
  {
    "type": "Feature",
    "geometry": {
       "type": "Point",
       "coordinates":  [ 117.0445,-0.593305556 ]
    },
    "properties": {
    "SITE_ID":"19TRG023",
    "SITE_NAME":"BAKUNGAN"
    }
  },
  {
    "type": "Feature",
    "geometry": {
       "type": "Point",
       "coordinates":  [ 116.056278,-2.927417 ]
    },
    "properties": {
    "SITE_ID":"17KBA033",
    "SITE_NAME":"BANGKALAN_MELAYU_TB"
    }
  },
  {
    "type": "Feature",
    "geometry": {
       "type": "Point",
       "coordinates":  [ 117.123968,-0.728983 ]
    },
    "properties": {
    "SITE_ID":"19SDW046",
    "SITE_NAME":"BANTUAS_TB"
    }
  },
  {
    "type": "Feature",
    "geometry": {
       "type": "Point",
       "coordinates":  [ 111.57884,-2.78346 ]
    },
    "properties": {
    "SITE_ID":"18PBU044",
    "SITE_NAME":"BATU_KUMPAI_ATAS_PL"
    }
  },
  {
    "type": "Feature",
    "geometry": {
       "type": "Point",
       "coordinates":  [ 114.8476389,-1.715305556 ]
    },
    "properties": {
    "SITE_ID":"18BNT001",
    "SITE_NAME":"BUNTOK"
    }
  },
  {
    "type": "Feature",
    "geometry": {
       "type": "Point",
       "coordinates":  [ 117.0351667,-0.541616667 ]
    },
    "properties": {
    "SITE_ID":"19SAA046",
    "SITE_NAME":"JEMBAYAN_LOAKUKU_TB"
    }
  },
  {
    "type": "Feature",
    "geometry": {
       "type": "Point",
       "coordinates":  [ 117.5519444,3.368944444 ]
    },
    "properties": {
    "SITE_ID":"19TAR004",
    "SITE_NAME":"JUWATA_LAUT"
    }
  },
  {
    "type": "Feature",
    "geometry": {
       "type": "Point",
       "coordinates":  [ 117.5405,3.428055556 ]
    },
    "properties": {
    "SITE_ID":"19TAR006",
    "SITE_NAME":"JUWATA_PANTAI"
    }
  },
  {
    "type": "Feature",
    "geometry": {
       "type": "Point",
       "coordinates":  [ 117.1049444,-0.637944444 ]
    },
    "properties": {
    "SITE_ID":"19TRG017",
    "SITE_NAME":"KM10_SAMARINDA"
    }
  },
  {
    "type": "Feature",
    "geometry": {
       "type": "Point",
       "coordinates":  [ 112.9511944,-2.568988 ]
    },
    "properties": {
    "SITE_ID":"18SPT012",
    "SITE_NAME":"KM8_SAMUDA"
    }
  },
  {
    "type": "Feature",
    "geometry": {
       "type": "Point",
       "coordinates":  [ 116.2211111,-3.245583333 ]
    },
    "properties": {
    "SITE_ID":"17KBA001",
    "SITE_NAME":"KOTABARU_BJM"
    }
  },
  {
    "type": "Feature",
    "geometry": {
       "type": "Point",
       "coordinates":  [ 111.364447,-2.1185 ]
    },
    "properties": {
    "SITE_ID":"18NIK016",
    "SITE_NAME":"KUDANGAN_TB"
    }
  },
  {
    "type": "Feature",
    "geometry": {
       "type": "Point",
       "coordinates":  [ 111.5573611,-2.741666667 ]
    },
    "properties": {
    "SITE_ID":"18PBU034",
    "SITE_NAME":"KUMPAI_BATU"
    }
  },
  {
    "type": "Feature",
    "geometry": {
       "type": "Point",
       "coordinates":  [ 116.6109444,3.576 ]
    },
    "properties": {
    "SITE_ID":"19MLU001",
    "SITE_NAME":"MALINAU"
    }
  },
  {
    "type": "Feature",
    "geometry": {
       "type": "Point",
       "coordinates":  [ 116.0518889,-3.17875 ]
    },
    "properties": {
    "SITE_ID":"17KBA036",
    "SITE_NAME":"MANDALA_BTLICIN_XL"
    }
  },
  {
    "type": "Feature",
    "geometry": {
       "type": "Point",
       "coordinates":  [ 114.8208056,-1.322166667 ]
    },
    "properties": {
    "SITE_ID":"18MTW026",
    "SITE_NAME":"MONTALAT_MT"
    }
  },
  {
    "type": "Feature",
    "geometry": {
       "type": "Point",
       "coordinates":  [ 117.2505278,3.700972222 ]
    },
    "properties": {
    "SITE_ID":"19TJS008",
    "SITE_NAME":"N_KUALA_LAPANG"
    }
  },
  {
    "type": "Feature",
    "geometry": {
       "type": "Point",
       "coordinates":  [ 114.6318333,-0.820027778 ]
    },
    "properties": {
    "SITE_ID":"18MTW004",
    "SITE_NAME":"N_PURUK_CAHU"
    }
  },
  {
    "type": "Feature",
    "geometry": {
       "type": "Point",
       "coordinates":  [ 114.90725,-0.958472222 ]
    },
    "properties": {
    "SITE_ID":"18MTW002",
    "SITE_NAME":"PASAR_M_TEWEH"
    }
  },
  {
    "type": "Feature",
    "geometry": {
       "type": "Point",
       "coordinates":  [ 114.8710833,-1.511472222 ]
    },
    "properties": {
    "SITE_ID":"18BNT015",
    "SITE_NAME":"PENDANG_SM"
    }
  },
  {
    "type": "Feature",
    "geometry": {
       "type": "Point",
       "coordinates":  [ 116.61806,3.5522 ]
    },
    "properties": {
    "SITE_ID":"19MLU020",
    "SITE_NAME":"PULAU_SAPI_MENTARANG_MT"
    }
  },
  {
    "type": "Feature",
    "geometry": {
       "type": "Point",
       "coordinates":  [ 112.9465,-2.620583333 ]
    },
    "properties": {
    "SITE_ID":"18SPT067",
    "SITE_NAME":"SAMPIT_BAGENDANG_TB"
    }
  },
  {
    "type": "Feature",
    "geometry": {
       "type": "Point",
       "coordinates":  [ 112.98775,-2.539194444 ]
    },
    "properties": {
    "SITE_ID":"18SPT058",
    "SITE_NAME":"SERANAU_TB"
    }
  },
  {
    "type": "Feature",
    "geometry": {
       "type": "Point",
       "coordinates":  [ 115.23077,-2.42157 ]
    },
    "properties": {
    "SITE_ID":"17AMT016",
    "SITE_NAME":"TELAGA_SARI_TB"
    }
  },
  {
    "type": "Feature",
    "geometry": {
       "type": "Point",
       "coordinates":  [ 116.9028889,3.607194444 ]
    },
    "properties": {
    "SITE_ID":"19TJS004",
    "SITE_NAME":"TIDUNG_PALA"
    }
  },
  {
    "type": "Feature",
    "geometry": {
       "type": "Point",
       "coordinates":  [ 114.90137,-0.98378 ]
    },
    "properties": {
    "SITE_ID":"18MTW027",
    "SITE_NAME":"TRINSING_TB"
    }
  },
  {
    "type": "Feature",
    "geometry": {
       "type": "Point",
       "coordinates":  [ 110.8242778,-2.316166667 ]
    },
    "properties": {
    "SITE_ID":"16KTP022",
    "SITE_NAME":"AIR_UPAS"
    }
  },
  {
    "type": "Feature",
    "geometry": {
       "type": "Point",
       "coordinates":  [ 110.4374722,0.206166667 ]
    },
    "properties": {
    "SITE_ID":"16SAG003",
    "SITE_NAME":"BODOK"
    }
  },
  {
    "type": "Feature",
    "geometry": {
       "type": "Point",
       "coordinates":  [ 110.2051111,-2.517222222 ]
    },
    "properties": {
    "SITE_ID":"16KTP003",
    "SITE_NAME":"KENDAWANGAN"
    }
  },
  {
    "type": "Feature",
    "geometry": {
       "type": "Point",
       "coordinates":  [ 110.5098889,-2.383222222 ]
    },
    "properties": {
    "SITE_ID":"16KTP016",
    "SITE_NAME":"N_BLANGIRAN"
    }
  },
  {
    "type": "Feature",
    "geometry": {
       "type": "Point",
       "coordinates":  [ 110.8116111,-2.392694444 ]
    },
    "properties": {
    "SITE_ID":"16KTP015",
    "SITE_NAME":"N_KLUWIN"
    }
  },
  {
    "type": "Feature",
    "geometry": {
       "type": "Point",
       "coordinates":  [ 116.8418889,-1.266416667 ]
    },
    "properties": {
    "SITE_ID":"19BPP031",
    "SITE_NAME":"BUKIT_SION"
    }
  },
  {
    "type": "Feature",
    "geometry": {
       "type": "Point",
       "coordinates":  [ 117.15495,-0.504027778 ]
    },
    "properties": {
    "SITE_ID":"19SMR017",
    "SITE_NAME":"CENTRAL_PLAZA"
    }
  },
  {
    "type": "Feature",
    "geometry": {
       "type": "Point",
       "coordinates":  [ 116.8444722,-1.270138889 ]
    },
    "properties": {
    "SITE_ID":"19BPP067",
    "SITE_NAME":"GUNUNG_MALANG"
    }
  },
  {
    "type": "Feature",
    "geometry": {
       "type": "Point",
       "coordinates":  [ 116.8301667,-1.250722222 ]
    },
    "properties": {
    "SITE_ID":"19BPP032",
    "SITE_NAME":"JL_MINYAK"
    }
  },
  {
    "type": "Feature",
    "geometry": {
       "type": "Point",
       "coordinates":  [ 116.8159444,-1.223083333 ]
    },
    "properties": {
    "SITE_ID":"19BPP021",
    "SITE_NAME":"KAMPUNG_BARU_UJUNG"
    }
  },
  {
    "type": "Feature",
    "geometry": {
       "type": "Point",
       "coordinates":  [ 116.8365556,-1.250972222 ]
    },
    "properties": {
    "SITE_ID":"19BPP074",
    "SITE_NAME":"KARANG_JAWA"
    }
  },
  {
    "type": "Feature",
    "geometry": {
       "type": "Point",
       "coordinates":  [ 116.8259444,-1.232166667 ]
    },
    "properties": {
    "SITE_ID":"19BPP007",
    "SITE_NAME":"KEBUN_SAYUR"
    }
  },
  {
    "type": "Feature",
    "geometry": {
       "type": "Point",
       "coordinates":  [ 117.15006,-0.49551 ]
    },
    "properties": {
    "SITE_ID":"19SMR077",
    "SITE_NAME":"KHAGUS_SALIM_PL"
    }
  },
  {
    "type": "Feature",
    "geometry": {
       "type": "Point",
       "coordinates":  [ 116.8333889,-1.259916667 ]
    },
    "properties": {
    "SITE_ID":"19BPP089",
    "SITE_NAME":"MARTADINATA_PL"
    }
  },
  {
    "type": "Feature",
    "geometry": {
       "type": "Point",
       "coordinates":  [ 117.147838,-0.517504 ]
    },
    "properties": {
    "SITE_ID":"19SMR044",
    "SITE_NAME":"MS_PNGHULU_TB"
    }
  },
  {
    "type": "Feature",
    "geometry": {
       "type": "Point",
       "coordinates":  [ 117.12346,-0.49463 ]
    },
    "properties": {
    "SITE_ID":"19SMR037",
    "SITE_NAME":"JL_BNGGERIS_PL"
    }
  },
  {
    "type": "Feature",
    "geometry": {
       "type": "Point",
       "coordinates":  [ 116.8349444,-1.241361111 ]
    },
    "properties": {
    "SITE_ID":"19BPP017",
    "SITE_NAME":"RAPAK_PLAZA"
    }
  },
  {
    "type": "Feature",
    "geometry": {
       "type": "Point",
       "coordinates":  [ 117.152,-0.483888889 ]
    },
    "properties": {
    "SITE_ID":"19SMR030",
    "SITE_NAME":"RUKO_BELIBIS"
    }
  },
  {
    "type": "Feature",
    "geometry": {
       "type": "Point",
       "coordinates":  [ 117.155,-0.478694444 ]
    },
    "properties": {
    "SITE_ID":"19SMR031",
    "SITE_NAME":"RUKO_CENDRAWASIH"
    }
  },
  {
    "type": "Feature",
    "geometry": {
       "type": "Point",
       "coordinates":  [ 117.0811944,-0.492916667 ]
    },
    "properties": {
    "SITE_ID":"19SMR050",
    "SITE_NAME":"SAID_PUSAKA_SM"
    }
  },
  {
    "type": "Feature",
    "geometry": {
       "type": "Point",
       "coordinates":  [ 116.8394167,-1.256972222 ]
    },
    "properties": {
    "SITE_ID":"19BPP043",
    "SITE_NAME":"SUCOFINDO"
    }
  },
  {
    "type": "Feature",
    "geometry": {
       "type": "Point",
       "coordinates":  [ 117.1589444,-0.5265 ]
    },
    "properties": {
    "SITE_ID":"19SMR016",
    "SITE_NAME":"SUNGAI_KAPIH"
    }
  },
  {
    "type": "Feature",
    "geometry": {
       "type": "Point",
       "coordinates":  [ 116.8350278,-1.224305556 ]
    },
    "properties": {
    "SITE_ID":"19BPP026",
    "SITE_NAME":"TELINDUNG"
    }
  },
  {
    "type": "Feature",
    "geometry": {
       "type": "Point",
       "coordinates":  [ 116.8126667,-1.230472222 ]
    },
    "properties": {
    "SITE_ID":"19BPP033",
    "SITE_NAME":"KP_BARU_TENGAH"
    }
  },
  {
    "type": "Feature",
    "geometry": {
       "type": "Point",
       "coordinates":  [ 116.8239167,-1.237722222 ]
    },
    "properties": {
    "SITE_ID":"19BPP087",
    "SITE_NAME":"PANDAN_SARI_PL"
    }
  },
  {
    "type": "Feature",
    "geometry": {
       "type": "Point",
       "coordinates":  [ 116.845,-1.223611111 ]
    },
    "properties": {
    "SITE_ID":"19BPP045",
    "SITE_NAME":"RUKO_RCPP"
    }
  },
  {
    "type": "Feature",
    "geometry": {
       "type": "Point",
       "coordinates":  [ 117.162216,-0.485386 ]
    },
    "properties": {
    "SITE_ID":"19SMR032",
    "SITE_NAME":"SG_PDALAM_TB"
    }
  },
  {
    "type": "Feature",
    "geometry": {
       "type": "Point",
       "coordinates":  [ 114.60285,-3.322019444 ]
    },
    "properties": {
    "SITE_ID":"17BJM037",
    "SITE_NAME":"DUTAMALL_BANJARMASIN_IR"
    }
  },
  {
    "type": "Feature",
    "geometry": {
       "type": "Point",
       "coordinates":  [ 114.6167778,-3.328444444 ]
    },
    "properties": {
    "SITE_ID":"17BJM048",
    "SITE_NAME":"GATOT_SUBROTO_BSM_PL"
    }
  },
  {
    "type": "Feature",
    "geometry": {
       "type": "Point",
       "coordinates":  [ 114.6018889,-3.317722222 ]
    },
    "properties": {
    "SITE_ID":"17BJM003",
    "SITE_NAME":"KAMPUNG_MELAYU"
    }
  },
  {
    "type": "Feature",
    "geometry": {
       "type": "Point",
       "coordinates":  [ 114.6091111,-3.319819444 ]
    },
    "properties": {
    "SITE_ID":"17BJM018",
    "SITE_NAME":"RUKO_VETERAN"
    }
  },
  {
    "type": "Feature",
    "geometry": {
       "type": "Point",
       "coordinates":  [ 114.6119167,-3.313611111 ]
    },
    "properties": {
    "SITE_ID":"17BJM033",
    "SITE_NAME":"SUNGAI_BILU"
    }
  },
  {
    "type": "Feature",
    "geometry": {
       "type": "Point",
       "coordinates":  [ 114.6787222,-3.322527778 ]
    },
    "properties": {
    "SITE_ID":"17MTP033",
    "SITE_NAME":"SUNGAI_LULUT2"
    }
  },
  {
    "type": "Feature",
    "geometry": {
       "type": "Point",
       "coordinates":  [ 114.7091111,-3.325916667 ]
    },
    "properties": {
    "SITE_ID":"17MTP002",
    "SITE_NAME":"SUNGAI_TABUK"
    }
  },
  {
    "type": "Feature",
    "geometry": {
       "type": "Point",
       "coordinates":  [ 109.355,-0.079166667 ]
    },
    "properties": {
    "SITE_ID":"16PTK039",
    "SITE_NAME":"NISSAN_AYANI_XL"
    }
  },
  {
    "type": "Feature",
    "geometry": {
       "type": "Point",
       "coordinates":  [ 109.28967,-0.006676 ]
    },
    "properties": {
    "SITE_ID":"16PTK047",
    "SITE_NAME":"SUI_RENGAS_PL"
    }
  },
  {
    "type": "Feature",
    "geometry": {
       "type": "Point",
       "coordinates":  [ 109.3276667,-0.035416667 ]
    },
    "properties": {
    "SITE_ID":"16PTK011",
    "SITE_NAME":"ARENA_REMAJA"
    }
  },
  {
    "type": "Feature",
    "geometry": {
       "type": "Point",
       "coordinates":  [ 111.2530278,0.132444444 ]
    },
    "properties": {
    "SITE_ID":"16SKU022",
    "SITE_NAME":"BELITANG"
    }
  },
  {
    "type": "Feature",
    "geometry": {
       "type": "Point",
       "coordinates":  [ 109.3313333,-0.018666667 ]
    },
    "properties": {
    "SITE_ID":"16PTK065",
    "SITE_NAME":"GERTAK12"
    }
  },
  {
    "type": "Feature",
    "geometry": {
       "type": "Point",
       "coordinates":  [ 109.3102778,-0.024444444 ]
    },
    "properties": {
    "SITE_ID":"16PTK059",
    "SITE_NAME":"GG_TANI"
    }
  },
  {
    "type": "Feature",
    "geometry": {
       "type": "Point",
       "coordinates":  [ 111.20609,0.23045 ]
    },
    "properties": {
    "SITE_ID":"16SKU031",
    "SITE_NAME":"KELANSAM_PL"
    }
  },
  {
    "type": "Feature",
    "geometry": {
       "type": "Point",
       "coordinates":  [ 109.3166389,-0.044666667 ]
    },
    "properties": {
    "SITE_ID":"16PTK009",
    "SITE_NAME":"KOTABARU"
    }
  },
  {
    "type": "Feature",
    "geometry": {
       "type": "Point",
       "coordinates":  [ 109.2988806,-0.025722222 ]
    },
    "properties": {
    "SITE_ID":"16PTK019",
    "SITE_NAME":"MANDAU_PERMAI"
    }
  },
  {
    "type": "Feature",
    "geometry": {
       "type": "Point",
       "coordinates":  [ 109.315,-0.014758333 ]
    },
    "properties": {
    "SITE_ID":"16PTK035",
    "SITE_NAME":"MARTADINATA_PTK"
    }
  },
  {
    "type": "Feature",
    "geometry": {
       "type": "Point",
       "coordinates":  [ 109.305,-0.035305556 ]
    },
    "properties": {
    "SITE_ID":"16PTK063",
    "SITE_NAME":"NATAKUSUMA"
    }
  },
  {
    "type": "Feature",
    "geometry": {
       "type": "Point",
       "coordinates":  [ 109.3257418,-0.02540888 ]
    },
    "properties": {
    "SITE_ID":"16PTK007",
    "SITE_NAME":"WAHIDHASIM_PTK_TB"
    }
  },
  {
    "type": "Feature",
    "geometry": {
       "type": "Point",
       "coordinates":  [ 109.319,-0.020435 ]
    },
    "properties": {
    "SITE_ID":"16PTK015",
    "SITE_NAME":"RAIS_ARAHMAN_TB"
    }
  },
  {
    "type": "Feature",
    "geometry": {
       "type": "Point",
       "coordinates":  [ 109.305215,-0.016138 ]
    },
    "properties": {
    "SITE_ID":"16PTK040",
    "SITE_NAME":"SUNGAI_BELIUNG_PL"
    }
  },
  {
    "type": "Feature",
    "geometry": {
       "type": "Point",
       "coordinates":  [ 109.9543889,0.385333333 ]
    },
    "properties": {
    "SITE_ID":"16NBA001",
    "SITE_NAME":"NGABANG"
    }
  },
  {
    "type": "Feature",
    "geometry": {
       "type": "Point",
       "coordinates":  [ 109.9366111,0.377583333 ]
    },
    "properties": {
    "SITE_ID":"16NBA022",
    "SITE_NAME":"NGABANG3_SM"
    }
  },
  {
    "type": "Feature",
    "geometry": {
       "type": "Point",
       "coordinates":  [ 109.2628056,-0.004444444 ]
    },
    "properties": {
    "SITE_ID":"16PTK053",
    "SITE_NAME":"NIPAH_KUNING"
    }
  },
  {
    "type": "Feature",
    "geometry": {
       "type": "Point",
       "coordinates":  [ 109.18084,-0.06112 ]
    },
    "properties": {
    "SITE_ID":"16MPW032",
    "SITE_NAME":"PASAR_SUNGAI_KAKAP_TB"
    }
  },
  {
    "type": "Feature",
    "geometry": {
       "type": "Point",
       "coordinates":  [ 109.924,0.363638889 ]
    },
    "properties": {
    "SITE_ID":"16NBA011",
    "SITE_NAME":"PTP_NGABANG"
    }
  },
  {
    "type": "Feature",
    "geometry": {
       "type": "Point",
       "coordinates":  [ 110.6031111,0.121638889 ]
    },
    "properties": {
    "SITE_ID":"16SAG002",
    "SITE_NAME":"SANGGAU"
    }
  },
  {
    "type": "Feature",
    "geometry": {
       "type": "Point",
       "coordinates":  [ 110.58375,0.124416667 ]
    },
    "properties": {
    "SITE_ID":"16SAG047",
    "SITE_NAME":"SANGGAU_3_SM"
    }
  },
  {
    "type": "Feature",
    "geometry": {
       "type": "Point",
       "coordinates":  [ 110.564,0.132694444 ]
    },
    "properties": {
    "SITE_ID":"16SAG019",
    "SITE_NAME":"SANGGAU_DUA"
    }
  },
  {
    "type": "Feature",
    "geometry": {
       "type": "Point",
       "coordinates":  [ 110.8912222,0.02075 ]
    },
    "properties": {
    "SITE_ID":"16SKU001",
    "SITE_NAME":"SEKADAU"
    }
  },
  {
    "type": "Feature",
    "geometry": {
       "type": "Point",
       "coordinates":  [ 110.5995833,0.139194444 ]
    },
    "properties": {
    "SITE_ID":"16SAG032",
    "SITE_NAME":"SENGKUANG"
    }
  },
  {
    "type": "Feature",
    "geometry": {
       "type": "Point",
       "coordinates":  [ 109.2843889,-0.044777778 ]
    },
    "properties": {
    "SITE_ID":"16PTK064",
    "SITE_NAME":"SUTOMO"
    }
  },
  {
    "type": "Feature",
    "geometry": {
       "type": "Point",
       "coordinates":  [ 109.19425,-0.056388889 ]
    },
    "properties": {
    "SITE_ID":"16MPW009",
    "SITE_NAME":"SUNGAI_KAKAP"
    }
  },
  {
    "type": "Feature",
    "geometry": {
       "type": "Point",
       "coordinates":  [ 114.5988889,-3.328416667 ]
    },
    "properties": {
    "SITE_ID":"17BJM038",
    "SITE_NAME":"PS_ANTASARI"
    }
  },
  {
    "type": "Feature",
    "geometry": {
       "type": "Point",
       "coordinates":  [ 114.5824694,-3.328561111 ]
    },
    "properties": {
    "SITE_ID":"17BJM049",
    "SITE_NAME":"DAHLIA_BJM_PL"
    }
  },
  {
    "type": "Feature",
    "geometry": {
       "type": "Point",
       "coordinates":  [ 114.5471047,-3.34925898 ]
    },
    "properties": {
    "SITE_ID":"17BJM063",
    "SITE_NAME":"HKSN_PERMAI_PL"
    }
  },
  {
    "type": "Feature",
    "geometry": {
       "type": "Point",
       "coordinates":  [ 114.5987889,-3.325636111 ]
    },
    "properties": {
    "SITE_ID":"17BJM012",
    "SITE_NAME":"KM1_BANJARMASIN"
    }
  },
  {
    "type": "Feature",
    "geometry": {
       "type": "Point",
       "coordinates":  [ 114.5956111,-3.322944444 ]
    },
    "properties": {
    "SITE_ID":"17BJM016",
    "SITE_NAME":"METRO_CITY"
    }
  },
  {
    "type": "Feature",
    "geometry": {
       "type": "Point",
       "coordinates":  [ 114.5875832,-3.33583763 ]
    },
    "properties": {
    "SITE_ID":"17BJM058",
    "SITE_NAME":"KELAYAN_SELATAN_PL"
    }
  },
  {
    "type": "Feature",
    "geometry": {
       "type": "Point",
       "coordinates":  [ 114.5764238,-3.32395101 ]
    },
    "properties": {
    "SITE_ID":"17BJM027",
    "SITE_NAME":"WILDANSARI_TB"
    }
  },
  {
    "type": "Feature",
    "geometry": {
       "type": "Point",
       "coordinates":  [ 114.57057,-3.33149 ]
    },
    "properties": {
    "SITE_ID":"17BJM028",
    "SITE_NAME":"TELAGA_BARU_PL"
    }
  },
  {
    "type": "Feature",
    "geometry": {
       "type": "Point",
       "coordinates":  [ 114.5771222,-3.335716667 ]
    },
    "properties": {
    "SITE_ID":"17BJM011",
    "SITE_NAME":"TELUK_TIRAM"
    }
  },
  {
    "type": "Feature",
    "geometry": {
       "type": "Point",
       "coordinates":  [ 113.8949444,-2.191861111 ]
    },
    "properties": {
    "SITE_ID":"18PLK005",
    "SITE_NAME":"ANTANG_PALANGKA"
    }
  },
  {
    "type": "Feature",
    "geometry": {
       "type": "Point",
       "coordinates":  [ 113.8895833,-2.208555556 ]
    },
    "properties": {
    "SITE_ID":"18PLK009",
    "SITE_NAME":"BUKIT_HINDU"
    }
  },
  {
    "type": "Feature",
    "geometry": {
       "type": "Point",
       "coordinates":  [ 113.9055556,-2.213861111 ]
    },
    "properties": {
    "SITE_ID":"18PLK021",
    "SITE_NAME":"GALAXY_1"
    }
  },
  {
    "type": "Feature",
    "geometry": {
       "type": "Point",
       "coordinates":  [ 113.8282702,-2.14257089 ]
    },
    "properties": {
    "SITE_ID":"18PLK017",
    "SITE_NAME":"TJILIK_RIWUT_KM12_ST"
    }
  },
  {
    "type": "Feature",
    "geometry": {
       "type": "Point",
       "coordinates":  [ 113.7905005,-2.10980148 ]
    },
    "properties": {
    "SITE_ID":"18PLK016",
    "SITE_NAME":"TJILIK_RIWUT_KM17_PL"
    }
  },
  {
    "type": "Feature",
    "geometry": {
       "type": "Point",
       "coordinates":  [ 113.905154,-2.204828 ]
    },
    "properties": {
    "SITE_ID":"18PLK011",
    "SITE_NAME":"JEKAN_RAYA_ST"
    }
  },
  {
    "type": "Feature",
    "geometry": {
       "type": "Point",
       "coordinates":  [ 113.885911,-2.184737 ]
    },
    "properties": {
    "SITE_ID":"18PLK012",
    "SITE_NAME":"BUKIT_TUNGGAL_PL"
    }
  },
  {
    "type": "Feature",
    "geometry": {
       "type": "Point",
       "coordinates":  [ 113.874377,-2.171423 ]
    },
    "properties": {
    "SITE_ID":"18PLK014",
    "SITE_NAME":"TJILIK_RIWUT_KM6_ST"
    }
  },
  {
    "type": "Feature",
    "geometry": {
       "type": "Point",
       "coordinates":  [ 113.8601944,-2.170916667 ]
    },
    "properties": {
    "SITE_ID":"18PLK002",
    "SITE_NAME":"PAL8"
    }
  },
  {
    "type": "Feature",
    "geometry": {
       "type": "Point",
       "coordinates":  [ 113.9111389,-2.198944444 ]
    },
    "properties": {
    "SITE_ID":"18PLK024",
    "SITE_NAME":"PASAR_KAHAYAN"
    }
  },
  {
    "type": "Feature",
    "geometry": {
       "type": "Point",
       "coordinates":  [ 113.8754722,-2.182861111 ]
    },
    "properties": {
    "SITE_ID":"18PLK023",
    "SITE_NAME":"PERUMAHAN_LESTARI"
    }
  },
  {
    "type": "Feature",
    "geometry": {
       "type": "Point",
       "coordinates":  [ 113.9107222,-2.212055556 ]
    },
    "properties": {
    "SITE_ID":"18PLK001",
    "SITE_NAME":"TVRI_PLKRAYA"
    }
  },
  {
    "type": "Feature",
    "geometry": {
       "type": "Point",
       "coordinates":  [ 116.8671389,-1.248277778 ]
    },
    "properties": {
    "SITE_ID":"19BPP076",
    "SITE_NAME":"AGUNG_TUNGGAL"
    }
  },
  {
    "type": "Feature",
    "geometry": {
       "type": "Point",
       "coordinates":  [ 116.85823,-1.22718 ]
    },
    "properties": {
    "SITE_ID":"19BPP055",
    "SITE_NAME":"BAMPR_LESTARI_PL"
    }
  },
  {
    "type": "Feature",
    "geometry": {
       "type": "Point",
       "coordinates":  [ 116.870562,-1.22436 ]
    },
    "properties": {
    "SITE_ID":"19BPP056",
    "SITE_NAME":"TUMARITIS_PL"
    }
  },
  {
    "type": "Feature",
    "geometry": {
       "type": "Point",
       "coordinates":  [ 116.8639444,-1.24375 ]
    },
    "properties": {
    "SITE_ID":"19BPP018",
    "SITE_NAME":"FANTASY_MALL"
    }
  },
  {
    "type": "Feature",
    "geometry": {
       "type": "Point",
       "coordinates":  [ 116.8551667,-1.216 ]
    },
    "properties": {
    "SITE_ID":"19BPP075",
    "SITE_NAME":"KM4_BALIKPAPAN"
    }
  },
  {
    "type": "Feature",
    "geometry": {
       "type": "Point",
       "coordinates":  [ 116.8616888,-1.24099634 ]
    },
    "properties": {
    "SITE_ID":"19BPP050",
    "SITE_NAME":"PERUM_BPP_BR_PL"
    }
  },
  {
    "type": "Feature",
    "geometry": {
       "type": "Point",
       "coordinates":  [ 116.8533056,-1.235138889 ]
    },
    "properties": {
    "SITE_ID":"19BPP072",
    "SITE_NAME":"STRAAT_3_BALIKPAPAN"
    }
  },
  {
    "type": "Feature",
    "geometry": {
       "type": "Point",
       "coordinates":  [ 117.1469444,-0.475555556 ]
    },
    "properties": {
    "SITE_ID":"19SMR018",
    "SITE_NAME":"MALL_LEMBUSWANA"
    }
  },
  {
    "type": "Feature",
    "geometry": {
       "type": "Point",
       "coordinates":  [ 117.13717,-0.47494 ]
    },
    "properties": {
    "SITE_ID":"19SMR041",
    "SITE_NAME":"JL_H_JUANDA_TB"
    }
  },
  {
    "type": "Feature",
    "geometry": {
       "type": "Point",
       "coordinates":  [ 117.1463333,-0.469833333 ]
    },
    "properties": {
    "SITE_ID":"19SMR076",
    "SITE_NAME":"SAMARINDA_SQUARE_MAC"
    }
  },
  {
    "type": "Feature",
    "geometry": {
       "type": "Point",
       "coordinates":  [ 117.1279167,-0.481833333 ]
    },
    "properties": {
    "SITE_ID":"19SMR073",
    "SITE_NAME":"SURYANATA_TB"
    }
  },
  {
    "type": "Feature",
    "geometry": {
       "type": "Point",
       "coordinates":  [ 109.31559,-0.035737 ]
    },
    "properties": {
    "SITE_ID":"16PTK043",
    "SITE_NAME":"SUNGAI_BANGKONG_PL"
    }
  },
  {
    "type": "Feature",
    "geometry": {
       "type": "Point",
       "coordinates":  [ 109.318391,-0.055587 ]
    },
    "properties": {
    "SITE_ID":"16PTK046",
    "SITE_NAME":"WONOBARU_PTK_PL"
    }
  },
  {
    "type": "Feature",
    "geometry": {
       "type": "Point",
       "coordinates":  [ 109.331262,-0.048842 ]
    },
    "properties": {
    "SITE_ID":"16PTK002",
    "SITE_NAME":"AKCAYA_PTK_PL"
    }
  },
  {
    "type": "Feature",
    "geometry": {
       "type": "Point",
       "coordinates":  [ 109.3483889,-0.070388889 ]
    },
    "properties": {
    "SITE_ID":"16PTK021",
    "SITE_NAME":"PARIT_HAJI"
    }
  },
  {
    "type": "Feature",
    "geometry": {
       "type": "Point",
       "coordinates":  [ 109.3379639,-0.056222222 ]
    },
    "properties": {
    "SITE_ID":"16PTK020",
    "SITE_NAME":"PURNAMA_PTK"
    }
  },
  {
    "type": "Feature",
    "geometry": {
       "type": "Point",
       "coordinates":  [ 109.3279167,-0.06225 ]
    },
    "properties": {
    "SITE_ID":"16PTK022",
    "SITE_NAME":"PURNAMA_UJUNG"
    }
  },
  {
    "type": "Feature",
    "geometry": {
       "type": "Point",
       "coordinates":  [ 109.3436944,-0.097055556 ]
    },
    "properties": {
    "SITE_ID":"16PTK018",
    "SITE_NAME":"SONORA"
    }
  },
  {
    "type": "Feature",
    "geometry": {
       "type": "Point",
       "coordinates":  [ 109.3238333,-0.041416667 ]
    },
    "properties": {
    "SITE_ID":"16PTK024",
    "SITE_NAME":"SULAWESI_PTK"
    }
  },
  {
    "type": "Feature",
    "geometry": {
       "type": "Point",
       "coordinates":  [ 116.8404417,-1.275905556 ]
    },
    "properties": {
    "SITE_ID":"19BPP102",
    "SITE_NAME":"MALL_BTC"
    }
  },
  {
    "type": "Feature",
    "geometry": {
       "type": "Point",
       "coordinates":  [ 117.105159,-0.5419873 ]
    },
    "properties": {
    "SITE_ID":"19SMR040",
    "SITE_NAME":"HARAPAN_BARU_TB"
    }
  },
  {
    "type": "Feature",
    "geometry": {
       "type": "Point",
       "coordinates":  [ 117.117851,-0.503818 ]
    },
    "properties": {
    "SITE_ID":"19SMR045",
    "SITE_NAME":"JL_MERANTI_PL"
    }
  },
  {
    "type": "Feature",
    "geometry": {
       "type": "Point",
       "coordinates":  [ 117.169361,-0.5608333 ]
    },
    "properties": {
    "SITE_ID":"19SMR078",
    "SITE_NAME":"RAWA_MKMR_PL"
    }
  },
  {
    "type": "Feature",
    "geometry": {
       "type": "Point",
       "coordinates":  [ 117.126763,-0.5123027 ]
    },
    "properties": {
    "SITE_ID":"19SMR033",
    "SITE_NAME":"S_KELEDANG_TB"
    }
  },
  {
    "type": "Feature",
    "geometry": {
       "type": "Point",
       "coordinates":  [ 117.110019,-0.527357 ]
    },
    "properties": {
    "SITE_ID":"19SMR036",
    "SITE_NAME":"SEI_KUJANG_TB"
    }
  },
  {
    "type": "Feature",
    "geometry": {
       "type": "Point",
       "coordinates":  [ 114.5823596,-3.32032294 ]
    },
    "properties": {
    "SITE_ID":"17BJM057",
    "SITE_NAME":"TELUK_DALAM2_TB"
    }
  },
  {
    "type": "Feature",
    "geometry": {
       "type": "Point",
       "coordinates":  [ 114.5822668,-3.30665581 ]
    },
    "properties": {
    "SITE_ID":"17BJM059",
    "SITE_NAME":"BELITUNGLAUT BANJARMASIN_ST"
    }
  },
  {
    "type": "Feature",
    "geometry": {
       "type": "Point",
       "coordinates":  [ 115.5158848,-3.7180186 ]
    },
    "properties": {
    "SITE_ID":"17BLC001",
    "SITE_NAME":"RD_BATU_LICIN_TB"
    }
  },
  {
    "type": "Feature",
    "geometry": {
       "type": "Point",
       "coordinates":  [ 111.643308,-2.669828 ]
    },
    "properties": {
    "SITE_ID":"18PBU017",
    "SITE_NAME":"KELURAHAN_BARU_TB"
    }
  },
  {
    "type": "Feature",
    "geometry": {
       "type": "Point",
       "coordinates":  [ 111.65057,-2.712733 ]
    },
    "properties": {
    "SITE_ID":"18PBU018",
    "SITE_NAME":"PASIR_PANJANG2_TB"
    }
  },
  {
    "type": "Feature",
    "geometry": {
       "type": "Point",
       "coordinates":  [ 111.631069,-2.693323 ]
    },
    "properties": {
    "SITE_ID":"18PBU019",
    "SITE_NAME":"JL_SULTAN_IMANUDIN_TB"
    }
  },
  {
    "type": "Feature",
    "geometry": {
       "type": "Point",
       "coordinates":  [ 111.727231,-2.738934 ]
    },
    "properties": {
    "SITE_ID":"18PBU020",
    "SITE_NAME":"KUMAI_HULU_TB"
    }
  },
  {
    "type": "Feature",
    "geometry": {
       "type": "Point",
       "coordinates":  [ 113.9173377,-2.22220831 ]
    },
    "properties": {
    "SITE_ID":"18PLK010",
    "SITE_NAME":"MENTENG_PALANGKA_PL"
    }
  },
  {
    "type": "Feature",
    "geometry": {
       "type": "Point",
       "coordinates":  [ 113.9192988,-2.2549699 ]
    },
    "properties": {
    "SITE_ID":"18PLK015",
    "SITE_NAME":"RTA_MILONO_KM5_ST"
    }
  },
  {
    "type": "Feature",
    "geometry": {
       "type": "Point",
       "coordinates":  [ 113.903042,-2.224446 ]
    },
    "properties": {
    "SITE_ID":"18PLK031",
    "SITE_NAME":"RADEN_SALEH_PL"
    }
  },
  {
    "type": "Feature",
    "geometry": {
       "type": "Point",
       "coordinates":  [ 116.820944,-1.22717 ]
    },
    "properties": {
    "SITE_ID":"19BPP053",
    "SITE_NAME":"KEL_BR_ULU_TB"
    }
  },
  {
    "type": "Feature",
    "geometry": {
       "type": "Point",
       "coordinates":  [ 116.8435765,-1.2382902 ]
    },
    "properties": {
    "SITE_ID":"19BPP058",
    "SITE_NAME":"GUNUNG SAMARINDA_PL"
    }
  },
  {
    "type": "Feature",
    "geometry": {
       "type": "Point",
       "coordinates":  [ 117.1618908,-0.475765 ]
    },
    "properties": {
    "SITE_ID":"19SMR042",
    "SITE_NAME":"TEMINDUNG_PERMAI_TB"
    }
  },
  {
    "type": "Feature",
    "geometry": {
       "type": "Point",
       "coordinates":  [ 116.83137,-1.231151 ]
    },
    "properties": {
    "SITE_ID":"19BPP059",
    "SITE_NAME":"JL_GUNUNG_EMPAT_PL"
    }
  },
  {
    "type": "Feature",
    "geometry": {
       "type": "Point",
       "coordinates":  [ 117.168908,-0.475765 ]
    },
    "properties": {
    "SITE_ID":"19SMR034",
    "SITE_NAME":"JL_SENTOSA_DLM_TB"
    }
  },
  {
    "type": "Feature",
    "geometry": {
       "type": "Point",
       "coordinates":  [ 114.6160749,-3.32143569 ]
    },
    "properties": {
    "SITE_ID":"17BJM025",
    "SITE_NAME":"KURIPAN_PL"
    }
  },
  {
    "type": "Feature",
    "geometry": {
       "type": "Point",
       "coordinates":  [ 114.6075726,-3.3263956 ]
    },
    "properties": {
    "SITE_ID":"17BJM026",
    "SITE_NAME":"RS_SARI_MULYA_ST"
    }
  },
  {
    "type": "Feature",
    "geometry": {
       "type": "Point",
       "coordinates":  [ 111.83912,-2.23677 ]
    },
    "properties": {
    "SITE_ID":"18NIK027",
    "SITE_NAME":"CAMP_PELITA_PT.KORINDO_TB"
    }
  },
  {
    "type": "Feature",
    "geometry": {
       "type": "Point",
       "coordinates":  [ 111.96634,-2.24952 ]
    },
    "properties": {
    "SITE_ID":"18PBU040",
    "SITE_NAME":"CAMP_PT.PBNA_TB"
    }
  },
  {
    "type": "Feature",
    "geometry": {
       "type": "Point",
       "coordinates":  [ 112.2167778,-2.397277778 ]
    },
    "properties": {
    "SITE_ID":"18KPA004",
    "SITE_NAME":"MUSIRAWAS_CH"
    }
  },
  {
    "type": "Feature",
    "geometry": {
       "type": "Point",
       "coordinates":  [ 111.3171111,-2.5855 ]
    },
    "properties": {
    "SITE_ID":"18SMA002",
    "SITE_NAME":"N_BABUAL"
    }
  },
  {
    "type": "Feature",
    "geometry": {
       "type": "Point",
       "coordinates":  [ 111.477,-2.21054 ]
    },
    "properties": {
    "SITE_ID":"18PBU043",
    "SITE_NAME":"NANGA_BULIK_CITY2_TB"
    }
  },
  {
    "type": "Feature",
    "geometry": {
       "type": "Point",
       "coordinates":  [ 111.8974,-2.541482 ]
    },
    "properties": {
    "SITE_ID":"18PBU021",
    "SITE_NAME":"NATAI_BARU_PL"
    }
  },
  {
    "type": "Feature",
    "geometry": {
       "type": "Point",
       "coordinates":  [ 111.1718835,-2.70731572 ]
    },
    "properties": {
    "SITE_ID":"18SMA004",
    "SITE_NAME":"PADANG_SUKAMARA_TB"
    }
  },
  {
    "type": "Feature",
    "geometry": {
       "type": "Point",
       "coordinates":  [ 112.1154167,-2.374583333 ]
    },
    "properties": {
    "SITE_ID":"18KPA006",
    "SITE_NAME":"PT_SINAR_MAS"
    }
  },
  {
    "type": "Feature",
    "geometry": {
       "type": "Point",
       "coordinates":  [ 112.0663056,-2.266083333 ]
    },
    "properties": {
    "SITE_ID":"18KPA025",
    "SITE_NAME":"SUKAMANDANG_TRANSG"
    }
  },
  {
    "type": "Feature",
    "geometry": {
       "type": "Point",
       "coordinates":  [ 111.1681944,-2.723833333 ]
    },
    "properties": {
    "SITE_ID":"18SMA001",
    "SITE_NAME":"SUKAMARA"
    }
  },
  {
    "type": "Feature",
    "geometry": {
       "type": "Point",
       "coordinates":  [ 111.711,-2.35972 ]
    },
    "properties": {
    "SITE_ID":"18PBU042",
    "SITE_NAME":"DESA_RUNTU_TB"
    }
  },
  {
    "type": "Feature",
    "geometry": {
       "type": "Point",
       "coordinates":  [ 114.445,-0.675666667 ]
    },
    "properties": {
    "SITE_ID":"18PRC002",
    "SITE_NAME":"AIRPORT_INDOMURO"
    }
  },
  {
    "type": "Feature",
    "geometry": {
       "type": "Point",
       "coordinates":  [ 114.5641111,-0.64375 ]
    },
    "properties": {
    "SITE_ID":"18PRC017",
    "SITE_NAME":"KMPLEK_RSUD_SM"
    }
  },
  {
    "type": "Feature",
    "geometry": {
       "type": "Point",
       "coordinates":  [ 114.9009444,-0.924111111 ]
    },
    "properties": {
    "SITE_ID":"18MTW024",
    "SITE_NAME":"MERONG"
    }
  },
  {
    "type": "Feature",
    "geometry": {
       "type": "Point",
       "coordinates":  [ 114.9039491,-0.9424831 ]
    },
    "properties": {
    "SITE_ID":"18MTW006",
    "SITE_NAME":"MELAYU_MUARATEWEH_PL"
    }
  },
  {
    "type": "Feature",
    "geometry": {
       "type": "Point",
       "coordinates":  [ 114.5693056,-0.620194444 ]
    },
    "properties": {
    "SITE_ID":"18PRC001",
    "SITE_NAME":"PURUK_CAHU"
    }
  },
  {
    "type": "Feature",
    "geometry": {
       "type": "Point",
       "coordinates":  [ 114.5447778,-3.197333333 ]
    },
    "properties": {
    "SITE_ID":"17MRB005",
    "SITE_NAME":"ANJIR_MUARA"
    }
  },
  {
    "type": "Feature",
    "geometry": {
       "type": "Point",
       "coordinates":  [ 114.4944722,-3.141666667 ]
    },
    "properties": {
    "SITE_ID":"17MRB003",
    "SITE_NAME":"ANJIR_PASAR"
    }
  },
  {
    "type": "Feature",
    "geometry": {
       "type": "Point",
       "coordinates":  [ 114.5728889,-3.263361111 ]
    },
    "properties": {
    "SITE_ID":"17MRB004",
    "SITE_NAME":"BERANGAS_BATOLA"
    }
  },
  {
    "type": "Feature",
    "geometry": {
       "type": "Point",
       "coordinates":  [ 114.6162778,-3.241083333 ]
    },
    "properties": {
    "SITE_ID":"17MRB007",
    "SITE_NAME":"HANDIL_BAKTI"
    }
  },
  {
    "type": "Feature",
    "geometry": {
       "type": "Point",
       "coordinates":  [ 114.5403889,-3.265166667 ]
    },
    "properties": {
    "SITE_ID":"17MRB002",
    "SITE_NAME":"KUIN_SEBERANG"
    }
  },
  {
    "type": "Feature",
    "geometry": {
       "type": "Point",
       "coordinates":  [ 114.5951405,-3.29387891 ]
    },
    "properties": {
    "SITE_ID":"17BJM053",
    "SITE_NAME":"SIMPANG_CEMARA_ST"
    }
  },
  {
    "type": "Feature",
    "geometry": {
       "type": "Point",
       "coordinates":  [ 114.5692308,-3.27507815 ]
    },
    "properties": {
    "SITE_ID":"17BJM024",
    "SITE_NAME":"ALALAK_UTARA_TB"
    }
  },
  {
    "type": "Feature",
    "geometry": {
       "type": "Point",
       "coordinates":  [ 109.3456944,-0.051666667 ]
    },
    "properties": {
    "SITE_ID":"16PTK016",
    "SITE_NAME":"MEGAMALL_AYANI"
    }
  },
  {
    "type": "Feature",
    "geometry": {
       "type": "Point",
       "coordinates":  [ 109.3473333,-0.036805556 ]
    },
    "properties": {
    "SITE_ID":"16PTK014",
    "SITE_NAME":"RAMAYANA_MALL"
    }
  },
  {
    "type": "Feature",
    "geometry": {
       "type": "Point",
       "coordinates":  [ 109.333,-0.028444444 ]
    },
    "properties": {
    "SITE_ID":"16PTK034",
    "SITE_NAME":"BERINGIN_PTK"
    }
  },
  {
    "type": "Feature",
    "geometry": {
       "type": "Point",
       "coordinates":  [ 109.3621111,-0.054305556 ]
    },
    "properties": {
    "SITE_ID":"16PTK058",
    "SITE_NAME":"BLKI"
    }
  },
  {
    "type": "Feature",
    "geometry": {
       "type": "Point",
       "coordinates":  [ 109.3435556,-0.035638889 ]
    },
    "properties": {
    "SITE_ID":"16PTK031",
    "SITE_NAME":"GAJAHMADA_MALL"
    }
  },
  {
    "type": "Feature",
    "geometry": {
       "type": "Point",
       "coordinates":  [ 109.336043,-0.035607 ]
    },
    "properties": {
    "SITE_ID":"16PTK003",
    "SITE_NAME":"RUKO_WPALMA_PL"
    }
  },
  {
    "type": "Feature",
    "geometry": {
       "type": "Point",
       "coordinates":  [ 109.3652806,-0.062086111 ]
    },
    "properties": {
    "SITE_ID":"16PTK023",
    "SITE_NAME":"RSU_SOEDARSO"
    }
  },
  {
    "type": "Feature",
    "geometry": {
       "type": "Point",
       "coordinates":  [ 109.3673889,-0.027222222 ]
    },
    "properties": {
    "SITE_ID":"16PTK013",
    "SITE_NAME":"TANJUNG_HULU"
    }
  },
  {
    "type": "Feature",
    "geometry": {
       "type": "Point",
       "coordinates":  [ 111.749878,-0.347384 ]
    },
    "properties": {
    "SITE_ID":"16MLW006",
    "SITE_NAME":"NANGA_PINOH2_PL"
    }
  },
  {
    "type": "Feature",
    "geometry": {
       "type": "Point",
       "coordinates":  [ 111.711584,-0.346033 ]
    },
    "properties": {
    "SITE_ID":"16MLW007",
    "SITE_NAME":"TANJUNG_TENGGANG_PL"
    }
  },
  {
    "type": "Feature",
    "geometry": {
       "type": "Point",
       "coordinates":  [ 111.1618889,-0.053333333 ]
    },
    "properties": {
    "SITE_ID":"16SKU025",
    "SITE_NAME":"BLUH_KUNING"
    }
  },
  {
    "type": "Feature",
    "geometry": {
       "type": "Point",
       "coordinates":  [ 111.1811111,0.001027778 ]
    },
    "properties": {
    "SITE_ID":"16STA032",
    "SITE_NAME":"MANIS_RAYA"
    }
  },
  {
    "type": "Feature",
    "geometry": {
       "type": "Point",
       "coordinates":  [ 111.4530556,-0.113972222 ]
    },
    "properties": {
    "SITE_ID":"16STA033",
    "SITE_NAME":"MERARAI"
    }
  },
  {
    "type": "Feature",
    "geometry": {
       "type": "Point",
       "coordinates":  [ 111.5263333,-0.102888889 ]
    },
    "properties": {
    "SITE_ID":"16STA008",
    "SITE_NAME":"N_BANCOH"
    }
  },
  {
    "type": "Feature",
    "geometry": {
       "type": "Point",
       "coordinates":  [ 111.6748611,-0.336194444 ]
    },
    "properties": {
    "SITE_ID":"16MLW004",
    "SITE_NAME":"N_LABANG"
    }
  },
  {
    "type": "Feature",
    "geometry": {
       "type": "Point",
       "coordinates":  [ 111.7410556,-0.337027778 ]
    },
    "properties": {
    "SITE_ID":"16MLW001",
    "SITE_NAME":"NANGA_PINOH"
    }
  },
  {
    "type": "Feature",
    "geometry": {
       "type": "Point",
       "coordinates":  [ 111.7242222,-0.337388889 ]
    },
    "properties": {
    "SITE_ID":"16MLW021",
    "SITE_NAME":"SIDOMULYO"
    }
  },
  {
    "type": "Feature",
    "geometry": {
       "type": "Point",
       "coordinates":  [ 111.306,-0.07882 ]
    },
    "properties": {
    "SITE_ID":"16STA043",
    "SITE_NAME":"SKPC_SP3_PAOH_TB"
    }
  },
  {
    "type": "Feature",
    "geometry": {
       "type": "Point",
       "coordinates":  [ 111.156,-0.132 ]
    },
    "properties": {
    "SITE_ID":"16STA042",
    "SITE_NAME":"SKPH_SP3_BEDAYAN_TB"
    }
  },
  {
    "type": "Feature",
    "geometry": {
       "type": "Point",
       "coordinates":  [ 111.444,-0.24934 ]
    },
    "properties": {
    "SITE_ID":"16STA041",
    "SITE_NAME":"SP4_KPI_LEBAK_UBAH_TB"
    }
  },
  {
    "type": "Feature",
    "geometry": {
       "type": "Point",
       "coordinates":  [ 111.468,-0.19014 ]
    },
    "properties": {
    "SITE_ID":"16STA044",
    "SITE_NAME":"SULAMRAYA_TB"
    }
  },
  {
    "type": "Feature",
    "geometry": {
       "type": "Point",
       "coordinates":  [ 111.5325278,-0.179111111 ]
    },
    "properties": {
    "SITE_ID":"16MLW020",
    "SITE_NAME":"TEBELIAN"
    }
  },
  {
    "type": "Feature",
    "geometry": {
       "type": "Point",
       "coordinates":  [ 111.2930278,-0.019944444 ]
    },
    "properties": {
    "SITE_ID":"16STA039",
    "SITE_NAME":"TEMPUNAK"
    }
  },
  {
    "type": "Feature",
    "geometry": {
       "type": "Point",
       "coordinates":  [ 114.6159167,-3.336888889 ]
    },
    "properties": {
    "SITE_ID":"17BJM036",
    "SITE_NAME":"HBI"
    }
  },
  {
    "type": "Feature",
    "geometry": {
       "type": "Point",
       "coordinates":  [ 114.6229639,-3.346452778 ]
    },
    "properties": {
    "SITE_ID":"17BJM062",
    "SITE_NAME":"_HOTEL RATTAN INN BANJARMASIN_MC"
    }
  },
  {
    "type": "Feature",
    "geometry": {
       "type": "Point",
       "coordinates":  [ 114.70912,-3.44648 ]
    },
    "properties": {
    "SITE_ID":"17BBR001",
    "SITE_NAME":"AIRPORT_BANJARMASIN"
    }
  },
  {
    "type": "Feature",
    "geometry": {
       "type": "Point",
       "coordinates":  [ 114.6118889,-3.345694444 ]
    },
    "properties": {
    "SITE_ID":"17BJM035",
    "SITE_NAME":"BANPER"
    }
  },
  {
    "type": "Feature",
    "geometry": {
       "type": "Point",
       "coordinates":  [ 114.64125,-3.346888889 ]
    },
    "properties": {
    "SITE_ID":"17MTP041",
    "SITE_NAME":"BUNYAMIN_PL"
    }
  },
  {
    "type": "Feature",
    "geometry": {
       "type": "Point",
       "coordinates":  [ 114.598,-3.353444444 ]
    },
    "properties": {
    "SITE_ID":"17BJM017",
    "SITE_NAME":"KELAYAN_BJM"
    }
  },
  {
    "type": "Feature",
    "geometry": {
       "type": "Point",
       "coordinates":  [ 114.6472778,-3.376527778 ]
    },
    "properties": {
    "SITE_ID":"17MTP008",
    "SITE_NAME":"KM10_AYANI"
    }
  },
  {
    "type": "Feature",
    "geometry": {
       "type": "Point",
       "coordinates":  [ 114.62126,-3.34358 ]
    },
    "properties": {
    "SITE_ID":"17BJM056",
    "SITE_NAME":"ANUGRAH BANJARMASIN_ST"
    }
  },
  {
    "type": "Feature",
    "geometry": {
       "type": "Point",
       "coordinates":  [ 114.5964413,-3.33989083 ]
    },
    "properties": {
    "SITE_ID":"17BJM022",
    "SITE_NAME":"MURUNG_RAYA_TB"
    }
  },
  {
    "type": "Feature",
    "geometry": {
       "type": "Point",
       "coordinates":  [ 114.598556,-3.335264 ]
    },
    "properties": {
    "SITE_ID":"17BJM023",
    "SITE_NAME":"KELAYAN_DALAM_PL"
    }
  },
  {
    "type": "Feature",
    "geometry": {
       "type": "Point",
       "coordinates":  [ 116.85855,-1.273605556 ]
    },
    "properties": {
    "SITE_ID":"19BPP103",
    "SITE_NAME":"_EWALKMALL"
    }
  },
  {
    "type": "Feature",
    "geometry": {
       "type": "Point",
       "coordinates":  [ 116.8722222,-1.258416667 ]
    },
    "properties": {
    "SITE_ID":"19BPP029",
    "SITE_NAME":"BDI"
    }
  },
  {
    "type": "Feature",
    "geometry": {
       "type": "Point",
       "coordinates":  [ 116.8635,-1.259 ]
    },
    "properties": {
    "SITE_ID":"19BPP078",
    "SITE_NAME":"BELLER_DAMAI_SM"
    }
  },
  {
    "type": "Feature",
    "geometry": {
       "type": "Point",
       "coordinates":  [ 116.881706,-1.25142 ]
    },
    "properties": {
    "SITE_ID":"19BPP054",
    "SITE_NAME":"KARTINI_RESIDENCE_ST"
    }
  },
  {
    "type": "Feature",
    "geometry": {
       "type": "Point",
       "coordinates":  [ 116.8560222,-1.26731944 ]
    },
    "properties": {
    "SITE_ID":"19BPP051",
    "SITE_NAME":"JALAN SIAGA_PL"
    }
  },
  {
    "type": "Feature",
    "geometry": {
       "type": "Point",
       "coordinates":  [ 116.85094,-1.26706 ]
    },
    "properties": {
    "SITE_ID":"19BPP097",
    "SITE_NAME":"MARKONI_ATAS_PL"
    }
  },
  {
    "type": "Feature",
    "geometry": {
       "type": "Point",
       "coordinates":  [ 116.8862,-1.244444444 ]
    },
    "properties": {
    "SITE_ID":"19BPP022",
    "SITE_NAME":"PERUM_KORPRI"
    }
  },
  {
    "type": "Feature",
    "geometry": {
       "type": "Point",
       "coordinates":  [ 116.8793,-1.26138 ]
    },
    "properties": {
    "SITE_ID":"19BPP052",
    "SITE_NAME":"BDS_TB"
    }
  },
  {
    "type": "Feature",
    "geometry": {
       "type": "Point",
       "coordinates":  [ 116.8839444,-1.262055556 ]
    },
    "properties": {
    "SITE_ID":"19BPP013",
    "SITE_NAME":"POKA"
    }
  },
  {
    "type": "Feature",
    "geometry": {
       "type": "Point",
       "coordinates":  [ 116.891,-1.261969444 ]
    },
    "properties": {
    "SITE_ID":"19BPP044",
    "SITE_NAME":"RUKO_ISWAHYUDI"
    }
  },
  {
    "type": "Feature",
    "geometry": {
       "type": "Point",
       "coordinates":  [ 113.1375556,-1.708944444 ]
    },
    "properties": {
    "SITE_ID":"18KSN006",
    "SITE_NAME":"N_TUMBANG_SAMBA"
    }
  },
  {
    "type": "Feature",
    "geometry": {
       "type": "Point",
       "coordinates":  [ 113.12775,-1.941583333 ]
    },
    "properties": {
    "SITE_ID":"18SPT002",
    "SITE_NAME":"N_PUNDU"
    }
  },
  {
    "type": "Feature",
    "geometry": {
       "type": "Point",
       "coordinates":  [ 116.89914,-1.25836 ]
    },
    "properties": {
    "SITE_ID":"19BPP093",
    "SITE_NAME":"AIRPORT_SEPINGGAN_TB"
    }
  },
  {
    "type": "Feature",
    "geometry": {
       "type": "Point",
       "coordinates":  [ 116.8951184,-1.23760516 ]
    },
    "properties": {
    "SITE_ID":"19BPP057",
    "SITE_NAME":"WLS_MUKTI_PL"
    }
  },
  {
    "type": "Feature",
    "geometry": {
       "type": "Point",
       "coordinates":  [ 116.840928,-1.182886 ]
    },
    "properties": {
    "SITE_ID":"19BPP060",
    "SITE_NAME":"KARTINI_KARIANGAU_ST"
    }
  },
  {
    "type": "Feature",
    "geometry": {
       "type": "Point",
       "coordinates":  [ 116.907594,-1.26083 ]
    },
    "properties": {
    "SITE_ID":"19BPP061",
    "SITE_NAME":"HOTEL_YAYANG_ST"
    }
  },
  {
    "type": "Feature",
    "geometry": {
       "type": "Point",
       "coordinates":  [ 116.862703,-1.203992 ]
    },
    "properties": {
    "SITE_ID":"19BPP062",
    "SITE_NAME":"PROJAKALKM5_PL"
    }
  },
  {
    "type": "Feature",
    "geometry": {
       "type": "Point",
       "coordinates":  [ 116.9971667,-1.134138889 ]
    },
    "properties": {
    "SITE_ID":"19BPP035",
    "SITE_NAME":"GUNUNG_TEMBAK"
    }
  },
  {
    "type": "Feature",
    "geometry": {
       "type": "Point",
       "coordinates":  [ 116.7619722,-1.186444444 ]
    },
    "properties": {
    "SITE_ID":"19PPU030",
    "SITE_NAME":"JENEBORA_SM"
    }
  },
  {
    "type": "Feature",
    "geometry": {
       "type": "Point",
       "coordinates":  [ 116.8196944,-1.202277778 ]
    },
    "properties": {
    "SITE_ID":"19BPP020",
    "SITE_NAME":"KARIANGAU"
    }
  },
  {
    "type": "Feature",
    "geometry": {
       "type": "Point",
       "coordinates":  [ 116.9013333,-1.099277778 ]
    },
    "properties": {
    "SITE_ID":"19BPP040",
    "SITE_NAME":"KM20BP_SMD"
    }
  },
  {
    "type": "Feature",
    "geometry": {
       "type": "Point",
       "coordinates":  [ 116.85226,-1.16145 ]
    },
    "properties": {
    "SITE_ID":"19BPP101",
    "SITE_NAME":"KOMATSU_ST"
    }
  },
  {
    "type": "Feature",
    "geometry": {
       "type": "Point",
       "coordinates":  [ 116.9821667,-1.202722222 ]
    },
    "properties": {
    "SITE_ID":"19BPP077",
    "SITE_NAME":"LAMARU_SM"
    }
  },
  {
    "type": "Feature",
    "geometry": {
       "type": "Point",
       "coordinates":  [ 116.7434722,-1.176138889 ]
    },
    "properties": {
    "SITE_ID":"19COW002",
    "SITE_NAME":"M_INNE_DONG_HWA"
    }
  },
  {
    "type": "Feature",
    "geometry": {
       "type": "Point",
       "coordinates":  [ 117.492506,0.139586 ]
    },
    "properties": {
    "SITE_ID":"19BTG015",
    "SITE_NAME":"BONTANGBARU_ST"
    }
  },
  {
    "type": "Feature",
    "geometry": {
       "type": "Point",
       "coordinates":  [ 116.7619444,-1.264111111 ]
    },
    "properties": {
    "SITE_ID":"19PPU001",
    "SITE_NAME":"PANAJAM"
    }
  },
  {
    "type": "Feature",
    "geometry": {
       "type": "Point",
       "coordinates":  [ 116.9668,-1.21254 ]
    },
    "properties": {
    "SITE_ID":"19BPP088",
    "SITE_NAME":"PASAR_MANGGAR_TB"
    }
  },
  {
    "type": "Feature",
    "geometry": {
       "type": "Point",
       "coordinates":  [ 116.89414,-1.22328 ]
    },
    "properties": {
    "SITE_ID":"19BPP049",
    "SITE_NAME":"PERUMAHAN REGENCY_ST"
    }
  },
  {
    "type": "Feature",
    "geometry": {
       "type": "Point",
       "coordinates":  [ 116.816,-0.913194444 ]
    },
    "properties": {
    "SITE_ID":"19PPU010",
    "SITE_NAME":"SEPAKU_DUA_SM"
    }
  },
  {
    "type": "Feature",
    "geometry": {
       "type": "Point",
       "coordinates":  [ 116.8964444,-1.252527778 ]
    },
    "properties": {
    "SITE_ID":"19BPP071",
    "SITE_NAME":"SYARIFUDIN_YOES_SM"
    }
  },
  {
    "type": "Feature",
    "geometry": {
       "type": "Point",
       "coordinates":  [ 116.9999444,-1.170388889 ]
    },
    "properties": {
    "SITE_ID":"19BPP016",
    "SITE_NAME":"TERITIP"
    }
  },
  {
    "type": "Feature",
    "geometry": {
       "type": "Point",
       "coordinates":  [ 114.8978889,-3.376611111 ]
    },
    "properties": {
    "SITE_ID":"17MTP011",
    "SITE_NAME":"ASTAMBUL"
    }
  },
  {
    "type": "Feature",
    "geometry": {
       "type": "Point",
       "coordinates":  [ 115.0918889,-3.156277778 ]
    },
    "properties": {
    "SITE_ID":"17RTA003",
    "SITE_NAME":"BINUANG"
    }
  },
  {
    "type": "Feature",
    "geometry": {
       "type": "Point",
       "coordinates":  [ 114.8664722,-3.449 ]
    },
    "properties": {
    "SITE_ID":"17MTP026",
    "SITE_NAME":"BUMI_PERMATA_HIJAU"
    }
  },
  {
    "type": "Feature",
    "geometry": {
       "type": "Point",
       "coordinates":  [ 114.9549722,-3.330194444 ]
    },
    "properties": {
    "SITE_ID":"17MTP005",
    "SITE_NAME":"DANAU_SALAK"
    }
  },
  {
    "type": "Feature",
    "geometry": {
       "type": "Point",
       "coordinates":  [ 114.764,-3.42651 ]
    },
    "properties": {
    "SITE_ID":"17BBR024",
    "SITE_NAME":"GOLF_ULIN_TB"
    }
  },
  {
    "type": "Feature",
    "geometry": {
       "type": "Point",
       "coordinates":  [ 115.2496667,-2.838472222 ]
    },
    "properties": {
    "SITE_ID":"17KGN007",
    "SITE_NAME":"HARITI"
    }
  },
  {
    "type": "Feature",
    "geometry": {
       "type": "Point",
       "coordinates":  [ 114.7793889,-3.450166667 ]
    },
    "properties": {
    "SITE_ID":"17MTP029",
    "SITE_NAME":"KOMP_ASRAMA_HAJI"
    }
  },
  {
    "type": "Feature",
    "geometry": {
       "type": "Point",
       "coordinates":  [ 114.8215833,-3.434638889 ]
    },
    "properties": {
    "SITE_ID":"17BBR020",
    "SITE_NAME":"KOMP_WALI_KOTA"
    }
  },
  {
    "type": "Feature",
    "geometry": {
       "type": "Point",
       "coordinates":  [ 114.7554278,-3.44755 ]
    },
    "properties": {
    "SITE_ID":"17BBR005",
    "SITE_NAME":"LANDASAN_ULIN"
    }
  },
  {
    "type": "Feature",
    "geometry": {
       "type": "Point",
       "coordinates":  [ 115.21275,-2.893972222 ]
    },
    "properties": {
    "SITE_ID":"17RTA005",
    "SITE_NAME":"LOKPAIKAT"
    }
  },
  {
    "type": "Feature",
    "geometry": {
       "type": "Point",
       "coordinates":  [ 114.8169278,-3.446466667 ]
    },
    "properties": {
    "SITE_ID":"17BBR003",
    "SITE_NAME":"LOKTABAT"
    }
  },
  {
    "type": "Feature",
    "geometry": {
       "type": "Point",
       "coordinates":  [ 114.8073056,-3.4545 ]
    },
    "properties": {
    "SITE_ID":"17BBR018",
    "SITE_NAME":"LOKTABAT_LANDASAN_ULIN"
    }
  },
  {
    "type": "Feature",
    "geometry": {
       "type": "Point",
       "coordinates":  [ 114.8314444,-3.444583333 ]
    },
    "properties": {
    "SITE_ID":"17BBR021",
    "SITE_NAME":"MINGGU_RAYA"
    }
  },
  {
    "type": "Feature",
    "geometry": {
       "type": "Point",
       "coordinates":  [ 115.0899444,-3.271305556 ]
    },
    "properties": {
    "SITE_ID":"17MTP015",
    "SITE_NAME":"NEW_GUNUNG_BATU"
    }
  },
  {
    "type": "Feature",
    "geometry": {
       "type": "Point",
       "coordinates":  [ 114.7385567,-3.41643659 ]
    },
    "properties": {
    "SITE_ID":"17BBR007",
    "SITE_NAME":"JL GOLF BANJARBARU_TB"
    }
  },
  {
    "type": "Feature",
    "geometry": {
       "type": "Point",
       "coordinates":  [ 114.8394252,-3.38544371 ]
    },
    "properties": {
    "SITE_ID":"17MTP016",
    "SITE_NAME":"MARTAPURA_TIMUR_ST"
    }
  },
  {
    "type": "Feature",
    "geometry": {
       "type": "Point",
       "coordinates":  [ 114.846776,-3.451113 ]
    },
    "properties": {
    "SITE_ID":"17MTP017",
    "SITE_NAME":"JL_KENANGA_BANJARBARU_TB"
    }
  },
  {
    "type": "Feature",
    "geometry": {
       "type": "Point",
       "coordinates":  [ 114.857251,-3.438535 ]
    },
    "properties": {
    "SITE_ID":"17MTP018",
    "SITE_NAME":"SUNGAI_ULIN_TB"
    }
  },
  {
    "type": "Feature",
    "geometry": {
       "type": "Point",
       "coordinates":  [ 114.8447222,-3.413388889 ]
    },
    "properties": {
    "SITE_ID":"17MTP006",
    "SITE_NAME":"PASAR_MARTAPURA"
    }
  },
  {
    "type": "Feature",
    "geometry": {
       "type": "Point",
       "coordinates":  [ 115.053,-3.29122 ]
    },
    "properties": {
    "SITE_ID":"17MTP034",
    "SITE_NAME":"PENGARON"
    }
  },
  {
    "type": "Feature",
    "geometry": {
       "type": "Point",
       "coordinates":  [ 115.098241,-3.29763865 ]
    },
    "properties": {
    "SITE_ID":"17MTP020",
    "SITE_NAME":"KECAMATAN_PENGARON_TB"
    }
  },
  {
    "type": "Feature",
    "geometry": {
       "type": "Point",
       "coordinates":  [ 114.8301111,-3.426944444 ]
    },
    "properties": {
    "SITE_ID":"17BBR019",
    "SITE_NAME":"PINUS"
    }
  },
  {
    "type": "Feature",
    "geometry": {
       "type": "Point",
       "coordinates":  [ 115.2365514,-2.86531614 ]
    },
    "properties": {
    "SITE_ID":"17KGN011",
    "SITE_NAME":"ROAD_RANTAU_PL"
    }
  },
  {
    "type": "Feature",
    "geometry": {
       "type": "Point",
       "coordinates":  [ 115.1871667,-3.050527778 ]
    },
    "properties": {
    "SITE_ID":"17RTA018",
    "SITE_NAME":"SALAM_BABARIS"
    }
  },
  {
    "type": "Feature",
    "geometry": {
       "type": "Point",
       "coordinates":  [ 114.8606944,-3.42575 ]
    },
    "properties": {
    "SITE_ID":"17MTP031",
    "SITE_NAME":"SEKUMPUL"
    }
  },
  {
    "type": "Feature",
    "geometry": {
       "type": "Point",
       "coordinates":  [ 115.1281667,-3.002222222 ]
    },
    "properties": {
    "SITE_ID":"17RTA004",
    "SITE_NAME":"TAMBARANGAN"
    }
  },
  {
    "type": "Feature",
    "geometry": {
       "type": "Point",
       "coordinates":  [ 117.2639444,-0.571805556 ]
    },
    "properties": {
    "SITE_ID":"19TRG014",
    "SITE_NAME":"ANGGANA"
    }
  },
  {
    "type": "Feature",
    "geometry": {
       "type": "Point",
       "coordinates":  [ 117.2285,-0.537944444 ]
    },
    "properties": {
    "SITE_ID":"19TRG031",
    "SITE_NAME":"BUMI_SAMBUTAN"
    }
  },
  {
    "type": "Feature",
    "geometry": {
       "type": "Point",
       "coordinates":  [ 117.2471667,-0.837222222 ]
    },
    "properties": {
    "SITE_ID":"19TRG061",
    "SITE_NAME":"DELTA_HANDIL_TOTAL"
    }
  },
  {
    "type": "Feature",
    "geometry": {
       "type": "Point",
       "coordinates":  [ 116.7932778,-0.563805556 ]
    },
    "properties": {
    "SITE_ID":"19TRG077",
    "SITE_NAME":"JONGGON_A_SM"
    }
  },
  {
    "type": "Feature",
    "geometry": {
       "type": "Point",
       "coordinates":  [ 116.8332778,-0.498 ]
    },
    "properties": {
    "SITE_ID":"19TRG076",
    "SITE_NAME":"JONGGON_B_SM"
    }
  },
  {
    "type": "Feature",
    "geometry": {
       "type": "Point",
       "coordinates":  [ 117.0963889,-0.702555556 ]
    },
    "properties": {
    "SITE_ID":"19TRG033",
    "SITE_NAME":"KM20_LOAJANAN"
    }
  },
  {
    "type": "Feature",
    "geometry": {
       "type": "Point",
       "coordinates":  [ 116.9789444,-0.997138889 ]
    },
    "properties": {
    "SITE_ID":"19TRG021",
    "SITE_NAME":"KM38_BALIKPAPAN"
    }
  },
  {
    "type": "Feature",
    "geometry": {
       "type": "Point",
       "coordinates":  [ 117.0138889,-0.917416667 ]
    },
    "properties": {
    "SITE_ID":"19TRG062",
    "SITE_NAME":"KM45_BALIKPAPAN"
    }
  },
  {
    "type": "Feature",
    "geometry": {
       "type": "Point",
       "coordinates":  [ 117.0888056,-0.600388889 ]
    },
    "properties": {
    "SITE_ID":"19TRG029",
    "SITE_NAME":"KM5_LOAJANAN"
    }
  },
  {
    "type": "Feature",
    "geometry": {
       "type": "Point",
       "coordinates":  [ 117.0519444,-0.7545 ]
    },
    "properties": {
    "SITE_ID":"19TRG022",
    "SITE_NAME":"KM80_BALIKPAPAN"
    }
  },
  {
    "type": "Feature",
    "geometry": {
       "type": "Point",
       "coordinates":  [ 117.1144722,-1.021416667 ]
    },
    "properties": {
    "SITE_ID":"19TRG036",
    "SITE_NAME":"KUALA_BPP"
    }
  },
  {
    "type": "Feature",
    "geometry": {
       "type": "Point",
       "coordinates":  [ 117.31454,-0.56535 ]
    },
    "properties": {
    "SITE_ID":"19SDW045",
    "SITE_NAME":"KUTAI_LM_TB"
    }
  },
  {
    "type": "Feature",
    "geometry": {
       "type": "Point",
       "coordinates":  [ 117.1909167,-0.4525 ]
    },
    "properties": {
    "SITE_ID":"19SMR022",
    "SITE_NAME":"LEMPAKE"
    }
  },
  {
    "type": "Feature",
    "geometry": {
       "type": "Point",
       "coordinates":  [ 117.1974444,-0.475805556 ]
    },
    "properties": {
    "SITE_ID":"19SMR066",
    "SITE_NAME":"MUGIREJO"
    }
  },
  {
    "type": "Feature",
    "geometry": {
       "type": "Point",
       "coordinates":  [ 117.16763,-0.53243 ]
    },
    "properties": {
    "SITE_ID":"19SMR038",
    "SITE_NAME":"GNG_RAMBAI_PL"
    }
  },
  {
    "type": "Feature",
    "geometry": {
       "type": "Point",
       "coordinates":  [ 117.186031,-0.466386 ]
    },
    "properties": {
    "SITE_ID":"19SMR043",
    "SITE_NAME":"REMPANGA_PL"
    }
  },
  {
    "type": "Feature",
    "geometry": {
       "type": "Point",
       "coordinates":  [ 117.155624,-0.446637 ]
    },
    "properties": {
    "SITE_ID":"19SMR028",
    "SITE_NAME":"SEMPAJA_SELATAN_TB"
    }
  },
  {
    "type": "Feature",
    "geometry": {
       "type": "Point",
       "coordinates":  [ 117.224232,-0.562225 ]
    },
    "properties": {
    "SITE_ID":"19SDW012",
    "SITE_NAME":"MAKROMAN_PL"
    }
  },
  {
    "type": "Feature",
    "geometry": {
       "type": "Point",
       "coordinates":  [ 117.2338318,-0.65682918 ]
    },
    "properties": {
    "SITE_ID":"19TRG053",
    "SITE_NAME":"SANGASANGA2_TB"
    }
  },
  {
    "type": "Feature",
    "geometry": {
       "type": "Point",
       "coordinates":  [ 117.0737209,-1.02155739 ]
    },
    "properties": {
    "SITE_ID":"19TRG054",
    "SITE_NAME":"SAMBOJA_KUALA_ST"
    }
  },
  {
    "type": "Feature",
    "geometry": {
       "type": "Point",
       "coordinates":  [ 117.1389444,-0.454694444 ]
    },
    "properties": {
    "SITE_ID":"19SMR004",
    "SITE_NAME":"PANDAN_WANGI"
    }
  },
  {
    "type": "Feature",
    "geometry": {
       "type": "Point",
       "coordinates":  [ 116.8574722,-0.441138889 ]
    },
    "properties": {
    "SITE_ID":"19TRG038",
    "SITE_NAME":"RD_TO_KOTABANGUN"
    }
  },
  {
    "type": "Feature",
    "geometry": {
       "type": "Point",
       "coordinates":  [ 117.196,-0.579833333 ]
    },
    "properties": {
    "SITE_ID":"19SMR029",
    "SITE_NAME":"RT_SANGA"
    }
  },
  {
    "type": "Feature",
    "geometry": {
       "type": "Point",
       "coordinates":  [ 117.0425,-1.011611111 ]
    },
    "properties": {
    "SITE_ID":"19TRG035",
    "SITE_NAME":"SAMBOJA"
    }
  },
  {
    "type": "Feature",
    "geometry": {
       "type": "Point",
       "coordinates":  [ 117.1859444,-0.514194444 ]
    },
    "properties": {
    "SITE_ID":"19SMR019",
    "SITE_NAME":"SAMBUTAN"
    }
  },
  {
    "type": "Feature",
    "geometry": {
       "type": "Point",
       "coordinates":  [ 117.2279444,-0.651888889 ]
    },
    "properties": {
    "SITE_ID":"19TRG011",
    "SITE_NAME":"SANGA_SANGA"
    }
  },
  {
    "type": "Feature",
    "geometry": {
       "type": "Point",
       "coordinates":  [ 117.165,-0.515638889 ]
    },
    "properties": {
    "SITE_ID":"19SMR058",
    "SITE_NAME":"SELILI_SM"
    }
  },
  {
    "type": "Feature",
    "geometry": {
       "type": "Point",
       "coordinates":  [ 117.1757778,-0.393 ]
    },
    "properties": {
    "SITE_ID":"19SMR068",
    "SITE_NAME":"SEMPAJA_BAYUR_SM"
    }
  },
  {
    "type": "Feature",
    "geometry": {
       "type": "Point",
       "coordinates":  [ 117.1519444,-0.97575 ]
    },
    "properties": {
    "SITE_ID":"19TRG010",
    "SITE_NAME":"SENIPAH"
    }
  },
  {
    "type": "Feature",
    "geometry": {
       "type": "Point",
       "coordinates":  [ 117.3735,-0.574111111 ]
    },
    "properties": {
    "SITE_ID":"19TRG025",
    "SITE_NAME":"TAMBORA"
    }
  },
  {
    "type": "Feature",
    "geometry": {
       "type": "Point",
       "coordinates":  [ 117.2229444,-0.425638889 ]
    },
    "properties": {
    "SITE_ID":"19SMR012",
    "SITE_NAME":"TANAH_MERAH"
    }
  },
  {
    "type": "Feature",
    "geometry": {
       "type": "Point",
       "coordinates":  [ 116.9829444,-0.428361111 ]
    },
    "properties": {
    "SITE_ID":"19TRG004",
    "SITE_NAME":"TENGGARONG"
    }
  },
  {
    "type": "Feature",
    "geometry": {
       "type": "Point",
       "coordinates":  [ 117.0109444,-0.843916667 ]
    },
    "properties": {
    "SITE_ID":"19TRG002",
    "SITE_NAME":"ULU_SAKAKANAN"
    }
  },
  {
    "type": "Feature",
    "geometry": {
       "type": "Point",
       "coordinates":  [ 117.1965,-0.419305556 ]
    },
    "properties": {
    "SITE_ID":"19SMR046",
    "SITE_NAME":"WADUK_BENANGA_SM"
    }
  },
  {
    "type": "Feature",
    "geometry": {
       "type": "Point",
       "coordinates":  [ 112.3735278,-2.563527778 ]
    },
    "properties": {
    "SITE_ID":"18KPA002",
    "SITE_NAME":"ARGO_INDOMAS"
    }
  },
  {
    "type": "Feature",
    "geometry": {
       "type": "Point",
       "coordinates":  [ 112.24183,-2.432756 ]
    },
    "properties": {
    "SITE_ID":"18KPA011",
    "SITE_NAME":"BASECAMP_MUSIRAWAS_ST"
    }
  },
  {
    "type": "Feature",
    "geometry": {
       "type": "Point",
       "coordinates":  [ 112.3792194,-2.733519444 ]
    },
    "properties": {
    "SITE_ID":"18KPA019",
    "SITE_NAME":"DANAU_SEMBULUH"
    }
  },
  {
    "type": "Feature",
    "geometry": {
       "type": "Point",
       "coordinates":  [ 112.5961667,-3.342194444 ]
    },
    "properties": {
    "SITE_ID":"18KPA031",
    "SITE_NAME":"KARTIKA_BAKTI"
    }
  },
  {
    "type": "Feature",
    "geometry": {
       "type": "Point",
       "coordinates":  [ 112.447,-2.47556 ]
    },
    "properties": {
    "SITE_ID":"18SPT069",
    "SITE_NAME":"KM75_SAMPIT_PL"
    }
  },
  {
    "type": "Feature",
    "geometry": {
       "type": "Point",
       "coordinates":  [ 112.559,-3.36284 ]
    },
    "properties": {
    "SITE_ID":"18KPA036",
    "SITE_NAME":"KUALA_PEMBUANG_CITY2_MT"
    }
  },
  {
    "type": "Feature",
    "geometry": {
       "type": "Point",
       "coordinates":  [ 112.54875,-3.382472222 ]
    },
    "properties": {
    "SITE_ID":"18KPA001",
    "SITE_NAME":"KUALA_PEMBUANG"
    }
  },
  {
    "type": "Feature",
    "geometry": {
       "type": "Point",
       "coordinates":  [ 112.9254722,-3.231888889 ]
    },
    "properties": {
    "SITE_ID":"18SPT014",
    "SITE_NAME":"N_UJUNG_PANDARAN"
    }
  },
  {
    "type": "Feature",
    "geometry": {
       "type": "Point",
       "coordinates":  [ 112.10368,-2.493151 ]
    },
    "properties": {
    "SITE_ID":"18KPA010",
    "SITE_NAME":"SERUYAN_ST"
    }
  },
  {
    "type": "Feature",
    "geometry": {
       "type": "Point",
       "coordinates":  [ 112.1298611,-2.493777778 ]
    },
    "properties": {
    "SITE_ID":"18KPA003",
    "SITE_NAME":"PEMBUANG_HULU"
    }
  },
  {
    "type": "Feature",
    "geometry": {
       "type": "Point",
       "coordinates":  [ 112.230861,-2.47011 ]
    },
    "properties": {
    "SITE_ID":"18KPA012",
    "SITE_NAME":"PT_SUMUR_PANDANWANGI_STP"
    }
  },
  {
    "type": "Feature",
    "geometry": {
       "type": "Point",
       "coordinates":  [ 112.3274444,-2.346722222 ]
    },
    "properties": {
    "SITE_ID":"18KPA005",
    "SITE_NAME":"PT_BINA_SAWIT"
    }
  },
  {
    "type": "Feature",
    "geometry": {
       "type": "Point",
       "coordinates":  [ 112.4916944,-2.760555556 ]
    },
    "properties": {
    "SITE_ID":"18KPA030",
    "SITE_NAME":"PT_KSI_SM"
    }
  },
  {
    "type": "Feature",
    "geometry": {
       "type": "Point",
       "coordinates":  [ 112.9670833,-2.843194444 ]
    },
    "properties": {
    "SITE_ID":"18SPT004",
    "SITE_NAME":"SAMUDA"
    }
  },
  {
    "type": "Feature",
    "geometry": {
       "type": "Point",
       "coordinates":  [ 112.9662778,-2.810861111 ]
    },
    "properties": {
    "SITE_ID":"18SPT031",
    "SITE_NAME":"SAMUDA_SEBERANG"
    }
  },
  {
    "type": "Feature",
    "geometry": {
       "type": "Point",
       "coordinates":  [ 112.4628056,-2.403111111 ]
    },
    "properties": {
    "SITE_ID":"18KPA023",
    "SITE_NAME":"SIMPANG_SEBABI"
    }
  },
  {
    "type": "Feature",
    "geometry": {
       "type": "Point",
       "coordinates":  [ 116.4299444,-1.502916667 ]
    },
    "properties": {
    "SITE_ID":"19PPU002",
    "SITE_NAME":"BABULU_DARAT"
    }
  },
  {
    "type": "Feature",
    "geometry": {
       "type": "Point",
       "coordinates":  [ 116.1923333,-1.904777778 ]
    },
    "properties": {
    "SITE_ID":"19TGT028",
    "SITE_NAME":"BUMI_PASIR_SM"
    }
  },
  {
    "type": "Feature",
    "geometry": {
       "type": "Point",
       "coordinates":  [ 116.458,-1.50064 ]
    },
    "properties": {
    "SITE_ID":"19PPU031",
    "SITE_NAME":"CAMAT_BABULU_MT"
    }
  },
  {
    "type": "Feature",
    "geometry": {
       "type": "Point",
       "coordinates":  [ 116.19782,-1.56442 ]
    },
    "properties": {
    "SITE_ID":"19TGT047",
    "SITE_NAME":"KAYUNGAU_TB"
    }
  },
  {
    "type": "Feature",
    "geometry": {
       "type": "Point",
       "coordinates":  [ 116.16496,-1.93216 ]
    },
    "properties": {
    "SITE_ID":"19TGT046",
    "SITE_NAME":"LONGPINANG_TB"
    }
  },
  {
    "type": "Feature",
    "geometry": {
       "type": "Point",
       "coordinates":  [ 116.7304167,-1.305527778 ]
    },
    "properties": {
    "SITE_ID":"19PPU022",
    "SITE_NAME":"KANTOR_BUPATI_PENAJAM_SM"
    }
  },
  {
    "type": "Feature",
    "geometry": {
       "type": "Point",
       "coordinates":  [ 116.2447778,-1.616805556 ]
    },
    "properties": {
    "SITE_ID":"19TGT026",
    "SITE_NAME":"KRAYAN_SM"
    }
  },
  {
    "type": "Feature",
    "geometry": {
       "type": "Point",
       "coordinates":  [ 116.5877222,-1.417166667 ]
    },
    "properties": {
    "SITE_ID":"19PPU005",
    "SITE_NAME":"LABANGKA"
    }
  },
  {
    "type": "Feature",
    "geometry": {
       "type": "Point",
       "coordinates":  [ 116.3159444,-1.521166667 ]
    },